name,city,state,latitude,longitude,precipitation,energy,soil_moisture,elevation,run,slope,landslide_prob,Target_Label
AMITY ENERGY LLC,AMWELL TOWNSHIP,PA,40.07139,-80.20472,0.154637039,23823915.53,24.41985,1468.3,89.47753,16.409706,0.0025,Low
BAYLES,GREENE,PA,39.817802,-80.02513,0.308772594,23823915.53,24.90813,1175,89.95448,13.062161,0.021,Low
WASTE MANAGEMENT ARDEN LFGTE,WASHINGTON,PA,40.208923,-80.27084,0.140129983,23823915.53,24.90813,1191.7,89.958206,13.247262,0.0025,Low
RED GLEN,CHARTIERS TOWNSHIP,PA,40.26193,-80.26797,0.182374433,23823915.53,25.2011,1240.8,89.566925,13.853328,0.0025,Low
GRAYS LANDING L&D HYDROELECTRIC PROJECT,MASONTOWN,PA,39.82374,-79.92302,0.189154938,23823915.53,24.90813,762.1,89.388016,8.525752,0.0025,Low
"HILL TOP ENERGY CENTER, LLC",CARMICHAELS,PA,39.89421,-79.9382,0.167772815,23823915.53,25.00579,1631.4,89.86883,18.153124,0.002,Low
HATFIELDS FERRY POWER STATION,MASONTOWN,PA,39.85562,-79.927605,0.145371512,23823915.53,24.5175,1268.2,89.67132,14.14276,0.0025,Low
POINT MARION L&D HYDROELECTRIC PROJECT,POINT MARION,PA,39.726856,-79.910126,0.148321822,23823915.53,25.2011,1091.8,89.54084,12.193318,0.0025,Low
GREENE ENERGY RESOURCE RECOVERY PROJECT,NEMACOLIN,PA,39.894787,-79.93062,0.185240939,23823915.53,25.39641,1245.3,89.2763,13.948832,0,Low
FAYETTE ENERGY FACILITY,MASONTOWN,PA,39.859352,-79.91787,0.161482751,23823915.53,24.90813,1205.2,89.891205,13.407319,0.0025,Low
RED GLEN ENERGY,HOUSTON,PA,40.265,-80.225,0.137485668,23823915.53,24.90813,1050,89.958275,11.672078,0.0025,Low
MAXWELL L&D HYDROELECTRIC PROJECT,LUZERNE,PA,40.0024,-79.958824,0.181487709,23823915.53,24.90813,2184.9,89.38055,24.444916,0.002,Low
GANS,GANS,PA,39.74766,-79.83882,0.157205164,23823915.53,24.90813,921.1,89.22035,10.323878,0.0025,Low
ROBINSON POWER COMPANY LLC,BULGER,PA,40.40917,-80.29806,0.162627831,23823915.53,25.39641,1056.1,89.257576,11.832049,0,Low
FIRSTENERGY MITCHELL POWER STATION,CORTNEY,PA,40.221085,-79.96821,0.163615957,23823915.53,24.90813,0,89.2091,0,0.0025,Low
MONONGAHELA L&D4 HYDROELECTRIC PROJECT,CHARLEROI,PA,40.145943,-79.90095,0.133843988,23823915.53,24.32219,516.6,89.44783,5.7754335,0.0025,Low
ELRAMA POWER PLANT,ELRAMA,PA,40.252213,-79.9175,0.151429102,23823915.53,24.90813,1092.8,89.18305,12.253449,0.0025,Low
CLAIRTON WORKS,CLAIRTON,PA,40.30955,-79.881966,0.165744767,23823915.53,24.90813,1643.3,90.14879,18.228754,0.002,Low
BRUNOT ISLAND,PITTSBURG,PA,40.464664,-80.0436,0.160879403,23823915.53,25.00579,571.5,89.851,6.3605304,0.0025,Low
EMSWORTH BC HYDROELECTRIC PROJECT,PITTSBURGH,PA,40.500546,-80.10351,0.188312247,23823915.53,24.5175,677.7,89.6721,7.557535,0.0025,Low
EMSWORTH L&D HYDROELECTRIC PROJECT,PITTSBURGH,PA,40.50305,-80.08944,0.32926634,23823915.53,24.81047,260.4,90.17492,2.8877208,0.021,Low
F R PHILLIPS,CRESCENT TOWNSHIP,PA,40.56854,-80.22845,0.178269327,23823915.53,25.2011,761,89.59758,8.493533,0.0025,Low
BEAVER VALLEY,SHIPPINGPORT,PA,40.62276,-80.43251,0.138040662,23823915.53,24.90813,850.4,89.17952,9.535822,0.0025,Low
FIRSTENERGY BRUCE MANSFIELD,SHIPPINGPORT,PA,40.63469,-80.416,0.229736984,23823915.53,24.90813,762.4,89.39989,8.527975,0.0025,Low
BRADDOCK LOCK AND DAM,BRADDOCK,PA,40.38889,-79.85889,0.163906753,23823915.53,24.90813,571.2,90.11187,6.3387876,0.0025,Low
TENASKA WESTMORELAND GENERATING STATION,SOUTH HUNGTINDON,PA,40.175247,-79.69666,0.154754907,23823915.53,24.81047,1156.8,89.80658,12.881017,0.0025,Low
MONTGOMERY L&D HYDROELECTRIC PROJECT,MONACA,PA,40.652477,-80.38687,0.163359672,23823915.53,24.90813,245.4,90.00765,2.7264347,0.0025,Low
MON VALLEY WORKS,DRAVOSBURG,PA,40.392838,-79.85676,0.136060566,23823915.53,24.41985,1249.5,89.50822,13.959612,0.0025,Low
AES BEAVER VALLEY PARTNERS BEAVER VALLEY,MONACA,PA,40.657497,-80.35383,0.177827254,23823915.53,24.90813,300.7,89.33655,3.3659236,0.0025,Low
SOUTH CHESTNUT LLC,FARMINGTON,PA,39.79972,-79.57028,0.187267467,23823915.53,25.39641,1690.4,89.29921,18.929619,0,Low
G F WEATON POWER STATION,MONACA,PA,40.66732,-80.3462,0.150557593,23823915.53,24.32219,1063,89.44115,11.884911,0.0025,Low
SHELL CHEMICAL APPALACHIA LLC,MONACA,PA,40.671665,-80.33639,0.167352527,23823915.53,25.00579,856.1,89.84771,9.528345,0.0025,Low
BEAVER SOLAR LLC,BEAVER,PA,40.6917,-80.32348,0.144915938,23823915.53,24.5175,1186.8,89.68011,13.233704,0.0025,Low
TOWNSEND HYDRO,NEW BRIGHTON,PA,40.73354,-80.3148,0.231930941,23823915.53,24.90813,1185.9,89.17626,13.298382,0.0025,Low
BEAVER VALLEY PATTERSON DAM,BEAVER FALLS,PA,40.7441,-80.31784,0.086659923,23823915.53,24.81047,0,90.227715,0,0.0025,Low
PPG MONROEVILLE CHEMICALS CENTER,MONROEVILLE,PA,40.44247,-79.732735,0.134975016,23823915.53,24.90813,1222.7,89.41934,13.673775,0.0025,Low
APOGEE TECHNOLOGY INC,VERONA,PA,40.51278,-79.800835,0.160310239,23823915.53,24.81047,1083.9,90.20185,12.016383,0.0025,Low
CHESWICK POWER PLANT,CHESWICK,PA,40.5384,-79.78993,0.146408513,23823915.53,25.2011,1039.7,89.5875,11.605413,0.0025,Low
FIRSTENERGY SPRINGDALE POWER STATION,SPRINGDALE,PA,40.544167,-79.767555,0.170258105,23823915.53,24.81047,245.4,89.792656,2.7329628,0.0025,Low
ALLEGHENY ENERGY UNITS 3 4 & 5,SPRINGDALE,PA,40.545387,-79.76818,0.186268121,23823915.53,24.90813,1145.2,89.945435,12.732163,0.0025,Low
SPRINGDALE 1 & 2,SPRINGDALE,PA,40.546474,-79.76839,0.18560186,23823915.53,24.81047,0,90.168686,0,0.0025,Low
MILL RUN WINDPOWER,ROCKWOOD,PA,39.921078,-79.39121,0.193459243,23823915.53,24.90813,1606.5,90.14285,17.821712,0.002,Low
YOUGH HYDRO POWER,CONFLUENCE,PA,39.801735,-79.368225,0.177779704,23823915.53,24.90813,1398.7,90.1466,15.515838,0.0025,Low
NEW CASTLE PLANT,WEST PITTSBURG,PA,40.937855,-80.3687,0.131818503,23823915.53,24.90813,1100.5,89.20741,12.336419,0.0025,Low
HICKORY RUN ENERGY STATION,NORTH BEAVER TOWNSHIP,PA,40.99112,-80.43231,0.184001714,23823915.53,24.81047,1171.1,89.72317,13.05237,0.0025,Low
ALLEGHENY NO. 5 HYDRO STATION,SCHENLEY,PA,40.68288,-79.6653,0.21684815,23823915.53,25.39641,1268.3,89.25278,14.210202,0,Low
ALLEGHENY L&D2 HYDROELECTRIC PROJECT,PITTSBURGH,PA,40.89444,-79.91361,0.191200882,23823915.53,25.39641,885.1,90.2929,9.802543,0,Low
"RINGER HILL WIND FARM, LLC",SALISBURY,PA,39.74472,-79.18806,0.171492398,23823915.53,24.90813,1433.9,90.01421,15.929707,0.0025,Low
ALLEGHENY NO 6 HYDRO STATION,FORD CITY,PA,40.716034,-79.576965,0.314986914,23823915.53,25.00579,591,89.86567,6.576483,0.021,Low
CONEMAUGH HYDRO PLANT,SALTSBURG,PA,40.463905,-79.36597,0.158185825,23823915.53,24.81047,1193.2,89.80237,13.286955,0.0025,Low
CASSELMAN WIND POWER PROJECT,GARRETT,PA,39.871956,-79.14307,0.148638338,23823915.53,25.29875,879.7,89.62725,9.815095,0.0025,Low
WIND FARM,NOT AVAILABLE,PA,39.863842,-79.10512,0.184001714,23823915.53,24.81047,1111.7,89.7246,12.390136,0.0025,Low
"GREEN MOUNTAIN STORAGE, LLC",GARRETT,PA,39.851677,-79.07053,0.168589264,23823915.53,24.81047,1347.6,90.164185,14.946068,0.0025,Low
ARMSTRONG,SHELOCTA,PA,40.637943,-79.35161,0.170623571,23823915.53,24.90813,1305,90.40586,14.434905,0.0025,Low
GENERAL ELECTRIC DIESEL ENGINE PLANT,GROVE CITY,PA,41.168938,-80.105385,0.202185959,23823915.53,24.81047,245.4,90.1796,2.7212362,0.0025,Low
GLADES PIKE GENERATION PLANT,SOMERSET,PA,40.006756,-79.04121,0.13846007,23823915.53,25.2011,1410.4,89.55391,15.749172,0.0025,Low
KEYSTONE,SHELOCTA,PA,40.66005,-79.34096,0.188312247,23823915.53,24.5175,1279.8,89.67328,14.27181,0.0025,Low
MEYERSDALE WINDPOWER,MEYERSDALE,PA,39.788216,-79.004944,0.151132971,23823915.53,24.90813,650.3,89.96398,7.228449,0.0025,Low
MEYERSDALE WINDPOWER BATTERY,MEYERSDALE,PA,39.79081,-79.002106,0.177283421,23823915.53,24.41985,736.9,89.47936,8.235418,0.0025,Low
FPL E SOMERSET WINDPOWER LLC,OHIOPYLE,PA,39.983555,-79.01101,0.422506154,23823915.53,24.90813,1096.5,90.35071,12.136042,0.02,Low
HOMER CITY GENERATING STATION,HOMER CITY,PA,40.513863,-79.196465,0.078571573,23823915.53,25.2011,891.7,90.454704,9.857972,0.0025,Low
ALLEGHENY HYDRO NO 9,COWANSVILLE,PA,40.95599,-79.5504,0.32926634,23823915.53,24.81047,570.5,90.17657,6.326477,0.021,Low
ALLEGHENY HYDRO NO 8,ADRIAN,PA,40.896587,-79.4789,0.155884117,23823915.53,25.2011,1335.9,89.59945,14.909689,0.0025,Low
LOOKOUT WINDPOWER LLC,BERLIN,PA,39.85106,-78.94607,0.160238534,23823915.53,24.90813,1250.4,90.02059,13.890156,0.0025,Low
FIRSTENERGY ARMSTRONG POWER STATION,ADRIAN,PA,40.929096,-79.466095,0.196853548,23823915.53,25.2011,809.7,90.429436,8.953943,0.0025,Low
CONEMAUGH,NEW FLORENCE,PA,40.384556,-79.0605,0.18359144,23823915.53,25.29875,743.4,89.63714,8.293437,0.0025,Low
INDIANA UNIVERSITY OF PENNSYLVANIA,INDIANA,PA,40.61571,-79.15737,0.161359727,23823915.53,24.90813,1347.1,90.0621,14.957457,0.0025,Low
SEWARD (PA),NEW FLORENCE,PA,40.406178,-79.03355,0.150557593,23823915.53,24.32219,1299.9,89.443436,14.533207,0.0025,Low
TWIN RIDGES WIND FARM,MEYERSDALE,PA,39.753315,-78.87856,0.166415706,23823915.53,24.90813,1156.3,90.37798,12.7940445,0.0025,Low
KELLY,TOBY TOWNSHIP,PA,41.07825,-79.565,0.173444346,23823915.53,25.2011,1145.9,90.50799,12.660761,0.0025,Low
MASON DIXON WIND FARM,MEYERSDALE,PA,39.78734,-78.85536,0.160049841,23823915.53,24.81047,1271,89.6902,14.171002,0.0025,Low
FORWARD WINDPOWER LLC,BERLIN,PA,40.10017,-78.86389,0.156256706,23823915.53,24.90813,1623.4,89.973755,18.04304,0.002,Low
SCRUBGRASS GENERATING PLANT,KENNERDELL,PA,41.269688,-79.81285,0.154757291,23823915.53,24.90813,920.2,89.87702,10.238435,0.0025,Low
STONY CREEK WIND FARM LLC,BERLIN,PA,40.03362,-78.82697,0.170284301,23823915.53,24.90813,580.1,90.0373,6.442885,0.0025,Low
HANDSOME LAKE ENERGY LLC,KENNERDELL,PA,41.2908,-79.8061,0.1995482,23823915.53,24.90813,0,89.869865,0,0.0025,Low
MAHONING CREEK HYDROELECTRIC PROJECT,NEW BETHLEHEM,PA,40.92215,-79.27779,0.170251489,23823915.53,24.90813,1282.2,89.925766,14.258428,0.0025,Low
CPV FAIRVIEW ENERGY CENTER,JOHNSTOWN,PA,40.412,-78.855,0.174705163,23823915.53,24.90813,1196.4,90.12768,13.274502,0.0025,Low
PINEY CREEK PROJECT,CLARION,PA,41.177742,-79.4418,0.149561301,23823915.53,24.81047,893.6,89.76681,9.954682,0.0025,Low
PINEY,CLARION,PA,41.19211,-79.43527,0.196853548,23823915.53,25.2011,1229.9,90.43241,13.600212,0.0025,Low
CRAWFORD RENEWABLE ENERGY - MEADVILLE PO,COCHRANTON,PA,41.529167,-80.23361,0.193098515,23823915.53,24.90813,1140.7,89.99423,12.675257,0.0025,Low
WAYNE,COCHRANTON,PA,41.51917,-80.01111,0.125967503,23823915.53,24.90813,0,89.19605,0,0.0025,Low
SHIPPENVILLE,PAINT TOWNSHIP,PA,41.231365,-79.41491,0.165520892,23823915.53,25.39641,670.5,89.29716,7.5086374,0,Low
HIGHLAND NORTH WIND FARM,SIDMAN,PA,40.307056,-78.7062,0.171936095,23823915.53,24.90813,1598,90.06604,17.742537,0.002,Low
COLVER POWER PROJECT,COLVER,PA,40.55063,-78.79867,0.148021027,23823915.53,24.90813,661.8,89.34266,7.407436,0.0025,Low
EBENSBURG POWER,EBENSBURG,PA,40.45512,-78.747475,0.127663702,23823915.53,25.39641,0,89.28295,0,0,Low
HIGHLAND WIND PROJECT (PA),SIDMAN,PA,40.30397,-78.69067,0.148060411,23823915.53,24.41985,1154.9,89.50356,12.903398,0.0025,Low
CAMBRIA COGEN,EBENSBURG,PA,40.474808,-78.70222,0.159610704,23823915.53,25.39641,1023.5,90.641975,11.291678,0,Low
PATTON WIND FARM,PATTON,PA,40.633015,-78.69393,0.203965843,23823915.53,24.90813,1431.1,90.13145,15.877921,0.0025,Low
ALLEGHENY RIDGE WIND FARM,PORTAGE,PA,40.377777,-78.56385,0.142187938,23823915.53,25.39641,1212.3,89.29656,13.57611,0,Low
NORTH ALLEGHENY WINDPOWER PROJECT,LILLY,PA,40.40177,-78.56799,0.219594583,23823915.53,25.39641,1784.9,89.26672,19.995132,0,Low
SELDOM SEEN WIND LLC,HASTINGS,PA,40.69583,-78.66306,0.169915751,23823915.53,24.81047,1164.7,89.70809,12.983221,0.0025,Low
CHESTNUT FLATS WIND FARM,ALTOONA,PA,40.521004,-78.46973,0.243345276,23823915.53,24.90813,1975.7,89.388885,22.102299,0.002,Low
JUNIATA LOCOMOTIVE SHOP,ALTOONA,PA,40.53305,-78.38447,0.16305013,23823915.53,25.39641,245.4,90.63646,2.7075195,0,Low
LAKEVIEW GAS RECOVERY,ERIE,PA,42.06021,-80.02078,0.139020309,23823915.53,24.90813,1287.5,89.1869,14.435978,0.0025,Low
ERIE COKE,ERIE,PA,42.14392,-80.06958,0.139393628,23823915.53,24.81047,1703,89.77885,18.968834,0.002,Low
AMERICAN EAGLE PAPER MILLS,TYRONE,PA,40.67984,-78.23331,0.453543216,23823915.53,25.39641,1003.6,90.61824,11.075033,0.053225806,High
WARREN,WARREN,PA,41.835964,-79.18922,0.180694103,23823915.53,25.39641,702.7,90.75918,7.7424674,0,Low
SANDY RIDGE WIND FARM,TYRONE,PA,40.753227,-78.22998,0.179366529,23823915.53,24.90813,1324.7,90.40794,14.652473,0.0025,Low
SHAWVILLE,SHAWVILLE,PA,41.06722,-78.36538,0.146408513,23823915.53,25.2011,245.4,89.59033,2.7391348,0.0025,Low
JOHNSONBURG MILL,JOHNSONBURG,PA,41.49182,-78.675705,0.191450596,23823915.53,25.39641,0,90.70132,0,0,Low
SENECA GENERATION LLC,WARREN,PA,41.8389,-79.0056,0.160740986,23823915.53,24.02922,622.7,90.861244,6.853307,0.0025,Low
WILLIAM F MATSON GENERATING STATION,HUNTINGDON,PA,40.43292,-78.00289,0.140761763,23823915.53,24.90813,1263.8,89.35292,14.143914,0.0025,Low
WARRIOR RIDGE HYDRO,PETERSBURG,PA,40.540073,-78.03454,0.145371512,23823915.53,24.5175,626.3,89.67043,6.9844646,0.0025,Low
"CUMMINS, INC",LAKEWOOD,NY,42.082897,-79.360176,0.508906543,23823915.53,25.00579,606.4,90.82865,6.676307,0.02,Low
RIPLEY WESTFIELD WIND LLC,RIPLEY,NY,42.24111,-79.635,0.140761763,23823915.53,24.90813,1161,89.35421,12.993232,0.0025,Low
S A CARLSON,JAMESTOWN,NY,42.09328,-79.24794,0.165685266,23823915.53,25.00579,415.8,89.83259,4.6286097,0.0025,Low
MOUNTAIN VIEW,GREENCASTLE,PA,39.800373,-77.80005,0.146833181,23823915.53,24.32219,869.5,89.46393,9.719001,0.0025,Low
CHAUTAUQUA LFGTE FACILITY,JAMESTOWN,NY,42.198063,-79.319145,0.185688987,23823915.53,24.02922,704.7,90.945946,7.7485585,0.0025,Low
CHAMBERSBURG,CHAMBERSBURG,PA,39.86699,-77.686356,0.199590236,23823915.53,24.90813,570.5,90.3565,6.313879,0.0025,Low
ORCHARD PARK,CHAMBERSBURG,PA,39.911095,-77.666595,0.185875803,23823915.53,24.02922,1033.1,91.0334,11.348581,0.0025,Low
WEST CAMPUS STEAM PLANT,UNIVERSITY PARK,PA,40.79278,-77.86472,0.159541726,23823915.53,24.90813,1178.4,89.96726,13.098098,0.0025,Low
FALLING SPRING,CHAMBERSBURG,PA,39.939705,-77.65696,0.170284301,23823915.53,24.90813,245.4,90.03441,2.7256246,0.0025,Low
EAST CAMPUS STEAM PLANT,UNIVERSITY PARK,PA,40.80917,-77.8475,0.163935855,23823915.53,24.90813,883.9,90.023636,9.818533,0.0025,Low
UNIVERSITY PARK SOLAR,STATE COLLEGE,PA,40.81702,-77.84412,0.19823578,23823915.53,25.39641,609.5,90.65405,6.723362,0,Low
CASSADAGA WIND FARM,CHERRY CREEK,NY,42.338333,-79.19556,0.071003035,23823915.53,25.39641,570.2,90.77712,6.2813187,0,Low
BLUE RIDGE LANDFILL,CHAMBERSBURG,PA,39.96194,-77.56111,0.176453918,23823915.53,25.00579,626,90.840805,6.891176,0.0025,Low
ARKWRIGHT SUMMIT WIND FARM LLC,FREDONIA,NY,42.41491,-79.24268,0.161359727,23823915.53,24.90813,0,90.063416,0,0.0025,Low
DUNKIRK GENERATING PLANT,DUNKIRK,NY,42.491,-79.3469,0.238057762,23823915.53,24.41985,1687.4,89.48651,18.856474,0.002,Low
CUMBERLAND COUNTY PA LFG RECOVERY,SHIPPENSBURG,PA,40.13814,-77.506775,0.170258105,23823915.53,24.81047,1518.5,89.79341,16.911041,0.002,Low
ALLEGANY WIND FARM,GREAT VALLEY,NY,42.036945,-78.53445,0.186993018,23823915.53,24.90813,459.6,89.991,5.1071777,0.0025,Low
INDECK OLEAN ENERGY CENTER,OLEAN,NY,42.085594,-78.455055,0.177078098,23823915.53,24.90813,1184,89.98241,13.158128,0.0025,Low
SOLEAN SOLAR PROJECT,OLEAN,NY,42.08967,-78.44688,0.127663702,23823915.53,25.39641,1527.5,89.28483,17.10817,0,Low
HOMER STREET WEST,OLEAN,NY,42.09813,-78.44228,0.1852355,23823915.53,25.2011,245.4,89.52071,2.7412648,0.0025,Low
HOMER STREET EAST,OLEAN,NY,42.099342,-78.44095,0.187735409,23823915.53,24.41985,1386.3,89.5021,15.489022,0.0025,Low
ORRTANNA,ORRTANNA,PA,39.84514,-77.350914,0.177899599,23823915.53,24.90813,570.5,90.08005,6.333256,0.0025,Low
SENECA NATION CATTARAUGUS WIND TURBINE,IRVING,NY,42.5809,-79.1027,0.157282338,23823915.53,24.90813,595.8,90.09923,6.6127095,0.0025,Low
RENOVO ENERGY CENTER,RENOVO,PA,41.328335,-77.75667,0.152786359,23823915.53,25.2011,1260.6,89.53313,14.079705,0.0025,Low
ANCHOR ENERGY,COUDERSPORT,PA,41.838013,-78.04812,0.148744553,23823915.53,24.81047,638.4,89.80349,7.1088552,0.0025,Low
KNOUSE SOLAR PROJECT 1,GARDNERS,PA,40.026924,-77.234665,0.140761763,23823915.53,24.90813,1678.1,89.353096,18.780546,0.002,Low
WEST VALLEY WEST,WEST VALLEY,NY,42.44293,-78.63213,0.16334413,23823915.53,25.2011,1513.3,89.529236,16.902859,0.002,Low
WEST VALLEY EAST,WEST VALLEY,NY,42.44363,-78.632126,0.162837625,23823915.53,23.93157,773.6,91.1566,8.486495,0.0025,Low
BAKERSTAND SOLAR (NY),FRANKLINVILLE,NY,42.344208,-78.47842,0.16695106,23823915.53,25.39641,586.6,90.288895,6.496923,0,Low
CASD SOLAR,CARLISLE,PA,40.215164,-77.20536,0.181712255,23823915.53,25.2011,1503.8,89.511795,16.80002,0.002,Low
TALENENERGY MARTINS CREEK LLC LOCK HAVEN,CALDWELL,PA,41.11886,-77.47078,0.183202595,23823915.53,24.02922,704.7,90.98482,7.745248,0.0025,Low
HUNTERSTOWN POWER PLANT,GETTYSBURG,PA,39.872665,-77.167206,0.187506795,23823915.53,25.39641,0,90.60095,0,0,Low
HUNTERSTOWN,GETTYSBURG,PA,39.86624,-77.16482,0.187550396,23823915.53,23.93157,731.3,91.11752,8.025899,0.0025,Low
MOUNTAIN,MOUNT HOLLY SPRINGS,PA,40.12296,-77.17232,0.183202595,23823915.53,24.02922,688.3,90.98537,7.564953,0.0025,Low
VITRO ARCHITECTURAL GLASS (PA),CARLISLE,PA,40.126217,-77.16448,0.193189442,23823915.53,25.2011,330.4,90.4537,3.6526976,0.0025,Low
GETTYSBURG ENERGY & NUTRIENT REC FACILITY,YORK SPRINGS,PA,39.947865,-77.12929,0.134975016,23823915.53,24.90813,1769.4,89.419846,19.787554,0.002,Low
JERSEY SHORE STEEL CO,MCELHATTAN,PA,41.162304,-77.354065,0.136060566,23823915.53,24.41985,1211.1,89.504745,13.531126,0.0025,Low
STEEL WINDS II,LACKAWANNA,NY,42.803345,-78.86017,0.155043378,23823915.53,24.90813,606.3,90.36877,6.7091765,0.0035,Low
CHAFFEE GAS RECOVERY,CHAFFEE,NY,42.580738,-78.493675,0.148506239,23823915.53,25.39641,350,89.269966,3.9206915,0,Low
STEEL SUN 2: 2303-III-2 HAMBURG TPKE,LACKAWANNA,NY,42.809002,-78.85337,0.174705163,23823915.53,24.90813,1081.1,90.127884,11.995178,0.0035,Low
STEEL WINDS WIND FARM,LACKAWANNA,NY,42.817066,-78.86752,0.198478848,23823915.53,24.02922,796.7,90.94926,8.7598295,0.0035,Low
STEEL SUN 2: 2303-III-4 HAMBURG TPKE,LACKAWANNA,NY,42.811146,-78.85422,0.162984431,23823915.53,25.10344,945,91.3099,10.349371,0.0035,Low
STEEL SUN,LACKAWANNA,NY,42.81255,-78.85174,0.170440137,23823915.53,24.90813,1541.2,89.93098,17.137589,0.003,Low
STEEL SUN 2: 2303-III-9 HAMBURG TPKE,LACKAWANNA,NY,42.81849,-78.85538,0.422506154,23823915.53,24.90813,589.9,90.35075,6.528999,0.02,Low
HAMILTON (PA),ABBOTTSTOWN,PA,39.909794,-76.98944,0.144919276,23823915.53,24.81047,1609.8,89.71941,17.942606,0.002,Low
GENERAL MILLS INC,BUFFALO,NY,42.870865,-78.875595,0.166763052,23823915.53,25.39641,576.8,90.32605,6.3857546,0,Low
BIG LEVEL WIND,HECTOR TOWNSHIP,PA,41.869328,-77.66594,0.158787563,23823915.53,24.90813,1032,89.339645,11.551422,0.0025,Low
NOBLE BLISS WINDPARK LLC,BLISS,NY,42.53435,-78.30508,0.076768123,23823915.53,24.81047,606.3,90.182304,6.723048,0.0025,Low
HYLAND LFGTE FACILITY,ANGELICA,NY,42.285828,-78.01298,0.165222317,23823915.53,23.93157,800.7,91.18009,8.781522,0.0025,Low
HOUGHTON,HOUGHTON,NY,42.42789,-78.146,0.159726143,23823915.53,24.81047,594,90.157005,6.5885067,0.0025,Low
TALENENERGY MARTINS CREEK LLC WEST SHORE,CAMP HILL,PA,40.190815,-76.94578,0.150174648,23823915.53,24.81047,625.4,89.785194,6.9655137,0.0025,Low
C R HUNTLEY GENERATING STATION,TONAWANDA,NY,42.970127,-78.93094,0.167883486,23823915.53,25.2011,570.5,90.58738,6.2977867,0.0035,Low
INDECK YERKES ENERGY CENTER,TONAWANDA,NY,42.9673,-78.917786,0.181758165,23823915.53,25.10344,1069.2,91.32456,11.707694,0.0035,Low
BIG TREE COMMUNITY SOLAR FARM,WALES,NY,42.766,-78.559,0.19703266,23823915.53,24.90813,245.4,90.34319,2.7163086,0.012,Low
HOSPIRA INC,BUFFALO,NY,42.909515,-78.74755,0.08418493,23823915.53,24.90813,610.6,90.04721,6.7808876,0.0035,Low
P H GLATFELTER,SPRING GROVE,PA,39.87094,-76.86812,0.134975016,23823915.53,24.90813,1109.4,89.41734,12.40699,0.0025,Low
ROUTE 19 #2 COMMUNITY SOLAR FARM,PIKE,NY,42.533806,-78.15377,0.170705259,23823915.53,24.02922,718.2,91.0212,7.890469,0.0025,Low
ROUTE 19 #1 COMMUNITY SOLAR FARM,PIKE,NY,42.534,-78.151,0.151132971,23823915.53,24.90813,565.8,89.96273,6.289271,0.0025,Low
TELEGRAPH RD #2 COMMUNITY SOLAR FARM,PIKE,NY,42.559475,-78.17941,0.168800503,23823915.53,25.39641,334.3,90.24141,3.7045078,0,Low
TELEGRAPH RD #1 COMMUNITY SOLAR FARM,PIKE,NY,42.561672,-78.17953,0.181422189,23823915.53,24.90813,1304.1,89.42203,14.583655,0.0025,Low
PAXTON CREEK COGENERATION,HARRISBURG,PA,40.26517,-76.87747,0.168769166,23823915.53,24.90813,1011.7,89.433334,11.312337,0.0025,Low
"COVANTA NIAGARA I, LLC",NIAGARA FALLS,NY,43.08314,-79.00764,0.137641549,23823915.53,24.90813,1530.8,90.00397,17.008139,0.0165,Low
WPS POWER NIAGARA,NIAGARA FALLS,NY,43.082638,-79.003296,0.160305962,23823915.53,25.00579,672,90.81151,7.3999434,0.016,Low
WISCOY 170,FILMORE,NY,42.5042,-78.0828,0.170284301,23823915.53,24.90813,790,90.037865,8.774087,0.0025,Low
HIGH SHELDON WIND FARM,STRYKERSVILLE,NY,42.765366,-78.41499,0.164651021,23823915.53,25.10344,1593.9,91.44479,17.43019,0.0115,Low
TALENENERGY MARTINS CREEK LLC HARRISBURG,HARRISBURG,PA,40.25789,-76.85789,0.165781155,23823915.53,25.2011,1814.7,89.609566,20.251186,0.002,Low
HARRISBURG FACILITY,HARRISBURG,PA,40.244194,-76.853874,0.162627831,23823915.53,25.39641,1386.3,89.254425,15.532002,0,Low
ALLEGANY COGEN,FILLMORE,NY,42.503,-78.06835,0.19555378,23823915.53,25.39641,245.4,90.69037,2.7059102,0,Low
FORTISTAR NORTH TONAWANDA,NORTH TONAWANDA,NY,43.04838,-78.8536,0.471025318,23823915.53,25.39641,570.2,90.74619,6.283459,0.052903226,High
LETCHWORTH SOLAR PROJECT,GAINESVILLE,NY,42.61872,-78.18091,0.163806975,23823915.53,25.10344,846.3,91.29873,9.26957,0.0025,Low
ROBERT MOSES NIAGARA,LEWISTON,NY,43.141155,-79.04074,0.188442767,23823915.53,25.2011,0,90.59125,0,0.018,Low
NOBLE WETHERSFIELD WINDPARK LLC,GAINSVILLE,NY,42.670296,-78.23234,0.148321822,23823915.53,25.2011,754.7,89.53976,8.4286585,0.0025,Low
LEWISTON NIAGARA,LEWISTON,NY,43.14149,-79.021866,0.150557593,23823915.53,24.32219,933,89.44261,10.43127,0.019,Low
WETHERSFIELD WIND FARM,GAINESVILLE,NY,42.685562,-78.245186,0.160101831,23823915.53,24.81047,1279.9,89.733955,14.263274,0.0025,Low
"BASSWOOD ENERGY, LLC",DUNCAN TOWNSHIP,PA,41.641647,-77.27624,0.15899685,23823915.53,25.00579,511.1,90.85131,5.625675,0.0025,Low
STONY CREEK WIND FARM NY,STRYKERSVILLE,NY,42.735146,-78.2454,0.172809705,23823915.53,25.10344,1548.1,91.49509,16.920034,0.0125,Low
SUSQUEHANNA UNIVERSITY SOLAR,SELINSGROVE,PA,40.795166,-76.88252,0.181111619,23823915.53,24.90813,1818,89.95945,20.209106,0.002,Low
GSK YORK RDC SOLAR FACILITY,YORK,PA,40.04386,-76.73547,0.1683442,23823915.53,24.90813,1081.4,89.34026,12.104285,0.0025,Low
PHOENIX CONTACT - CCHP PLANT,MIDDLETOWN,PA,40.228714,-76.74773,0.198232085,23823915.53,23.93157,836.3,91.036865,9.186388,0.0025,Low
YORK COUNTY RESOURCE RECOVERY,YORK,PA,40.00169,-76.71814,0.179619178,23823915.53,24.81047,245.4,90.16829,2.7215776,0.0025,Low
MODEL CITY ENERGY FACILITY,YOUNGSTOWN,NY,43.209496,-78.9808,0.113660626,23823915.53,25.10344,745.2,91.38622,8.154402,0.0405,Medium
MODERN INNOVATIVE ENERGY LLC,YOUNGSTOWN,NY,43.210068,-78.98086,0.168996528,23823915.53,23.93157,970.2,91.0482,10.655894,0.04,Medium
INDECK SILVER SPRINGS ENERGY CENTER,SILVER SPRINGS,NY,42.65398,-78.0774,0.18950592,23823915.53,25.39641,245.4,90.66106,2.7067852,0,Low
THREE MILE ISLAND,MIDDLETOWN,PA,40.154453,-76.72489,0.181611806,23823915.53,25.39641,1022.6,89.2924,11.452263,0,Low
TALENENERGY MARTINS CREEK LLC WILLIAMSPORT,WILLIAMSPORT,PA,41.236057,-77.00746,0.187168598,23823915.53,25.10344,711.6,91.22518,7.8004775,0.0025,Low
YORK HAVEN,YORK HAVEN,PA,40.114235,-76.71147,0.171700478,23823915.53,25.10344,1098.8,91.40895,12.020704,0.0025,Low
BRUNNER ISLAND,YORK HAVEN,PA,40.095776,-76.69665,0.183300778,23823915.53,24.02922,638.2,90.89447,7.0213294,0.0025,Low
BUCKNELL UNIVERSITY,LEWISBURG,PA,40.955128,-76.87895,0.189154938,23823915.53,24.90813,1354.6,89.38689,15.154348,0.0025,Low
YORK GENERATION COMPANY LLC,YORK,PA,39.98564,-76.67616,0.177283421,23823915.53,24.41985,1292.8,89.48068,14.447811,0.0025,Low
NILES VALLEY ENERGY LLC,CHARLESTON TOWNSHIP,PA,41.813717,-77.279175,0.135815009,23823915.53,24.90813,1507,89.19268,16.896006,0.002,Low
PANDA HUMMEL STATION LLC,SHAMOKIN DAM,PA,40.839012,-76.825516,0.199659184,23823915.53,25.39641,245.4,90.60719,2.7083943,0,Low
SUNBURY GENERATION LP,SHAMOKIN DAM,PA,40.83818,-76.824234,0.194104016,23823915.53,25.2011,842.5,90.51478,9.307873,0.0025,Low
LOCKPORT ENERGY ASSOCIATES LP,LOCKPORT,NY,43.161938,-78.745056,0.188337043,23823915.53,25.39641,1233.6,90.72956,13.596451,0,Low
LYCOMING COUNTY,MONTGOMERY,PA,41.15179,-76.91719,0.174224809,23823915.53,25.10344,1131.5,91.50604,12.365304,0.0025,Low
ALLENWOOD,MONTGOMERY,PA,41.1518,-76.91711,0.176065341,23823915.53,25.10344,1131.7,91.23443,12.404308,0.0025,Low
MARSH HILL WIND FARM,JASPER,NY,42.172874,-77.51463,0.187937126,23823915.53,25.10344,964.7,91.3043,10.565767,0.0025,Low
TOLNA,STEWARTSTOWN,PA,39.76051,-76.63542,0.145948112,23823915.53,24.32219,0,89.45946,0,0.0025,Low
LANCASTER COUNTY RESOURCE RECOVERY,BRAINBRIDGE,PA,40.07128,-76.644264,0.209982544,23823915.53,24.81047,570.5,90.22687,6.32295,0.0025,Low
VIKING ENERGY OF NORTHUMBERLAND,NORTHUMBERLAND,PA,40.9172,-76.8146,0.184495971,23823915.53,25.39641,245.4,90.7156,2.7051578,0,Low
HYDRAULIC RACE,LOCKPORT,NY,43.17095,-78.69155,0.189260766,23823915.53,25.10344,882.7,91.429985,9.654383,0.0195,Low
LAUREL HILL WIND,ROARING BRANCH,PA,41.526123,-77.05015,0.197952017,23823915.53,25.2011,245.4,90.531395,2.710662,0.0025,Low
HOWARD WIND FARM,HORNELL,NY,42.30266,-77.55477,0.183300778,23823915.53,24.02922,685.4,90.89784,7.5403333,0.0025,Low
MODERN LANDFILL PRODUCTION PLANT,YORK,PA,39.95304,-76.593475,0.145948112,23823915.53,24.32219,1102,89.457565,12.31869,0.0025,Low
BARON WINDS FARM,COHOCTON,NY,42.375,-77.593,0.130418554,23823915.53,24.90813,861.3,89.39844,9.634397,0.0025,Low
PANDA PATRIOT GENERATION PLANT,MONTGOMERY,PA,41.18083,-76.83917,0.179551661,23823915.53,24.5175,1099.1,89.65655,12.259005,0.0025,Low
ELIZABETHTOWN SOLAR,ELIZABETHTOWN,PA,40.152695,-76.5814,0.173415706,23823915.53,25.10344,1393.2,91.33678,15.25344,0.0025,Low
SYNERGY BIOGAS,WYOMING,NY,42.828392,-78.05429,0.198454097,23823915.53,24.81047,1826.4,89.78357,20.34225,0.003,Low
KOPPERS SUSQUEHANNA PLANT,MONGOMERY,PA,41.185654,-76.831955,0.176734582,23823915.53,25.10344,789.3,91.370026,8.6385,0.0025,Low
BLOSSBURG,BLOSSBURG,PA,41.70647,-77.081985,0.161482751,23823915.53,24.90813,340.8,89.88801,3.7913845,0.0025,Low
ALABAMA LEDGE WIND FARM LLC,ALABAMA,NY,43.074276,-78.35199,0.19062604,23823915.53,25.39641,1369.3,90.27903,15.16742,0,Low
FORT INDIANTOWN GAP,ANNVILLE,PA,40.42756,-76.57313,0.160748869,23823915.53,25.10344,748.5,91.57694,8.173455,0.0025,Low
US GYPSUM OAKFIELD,OAKFIELD,NY,43.06475,-78.297966,0.160718516,23823915.53,25.00579,737.1,89.83758,8.204807,0.01,Low
MASSER FARMS REALTY SOLAR,SACRAMENTO,PA,40.64056,-76.60542,0.177776515,23823915.53,25.2011,0,89.517075,0,0.0025,Low
BATAVIA POWER PLANT,BATAVIA,NY,42.982773,-78.159615,0.169801965,23823915.53,25.10344,797.7,91.228874,8.743942,0.0035,Low
ESC TIOGA COUNTY POWER,TIOGA,PA,41.767212,-77.035385,0.183300778,23823915.53,24.02922,639.1,90.89467,7.0312157,0.0025,Low
CALL FARMS 3,BATAVIA,NY,43.023045,-78.179405,0.180664256,23823915.53,25.39641,780.3,90.69192,8.603854,0,Low
COHOCTON WIND PROJECT,COHOCTON,NY,42.44556,-77.52319,0.156166136,23823915.53,24.41985,902.2,89.48458,10.082184,0.0025,Low
CALL FARMS 1,BATAVIA,NY,43.03842,-78.18484,0.150631145,23823915.53,24.81047,569.9,89.757324,6.349343,0.01,Low
LICHTENTHAL,BATAVIA,NY,43.019794,-78.15418,0.170322493,23823915.53,25.00579,704.3,89.843094,7.839222,0.009,Low
MOUNT JOY WIRE,MOUNT JOY,PA,40.10846,-76.47673,0.221183226,23823915.53,25.00579,704.5,89.312996,7.8879895,0.0025,Low
PPL FREY FARM LANDFILL WIND,CONESTOGA,PA,39.959457,-76.45485,0.173183635,23823915.53,25.10344,725.4,91.3667,7.9394355,0.0025,Low
SREC BATH LFGTE,BATH,NY,42.32223,-77.385376,0.158787563,23823915.53,24.90813,1032,89.339645,11.551422,0.0025,Low
GLRA LANDFILL,LEBANON,PA,40.366375,-76.492966,0.19091253,23823915.53,24.81047,245.4,90.20817,2.7203746,0.0025,Low
FREY FARM LANDFILL,CONESTOGA,PA,39.9589,-76.4442,0.142187938,23823915.53,25.39641,725.6,89.29512,8.125864,0,Low
TALENENERGY MONTOUR,WASHINGTONVILLE,PA,41.06929,-76.66579,0.159541726,23823915.53,24.90813,1307.7,89.966896,14.535347,0.0025,Low
TIME WARNER CABLE - KNOWLES,BATH,NY,42.334827,-77.376656,0.182200953,23823915.53,25.10344,1442.3,91.29756,15.797792,0.0025,Low
GLENWOOD HYDRO,MEDINA,NY,43.235947,-78.39041,0.193062007,23823915.53,23.93157,589.9,91.088875,6.4760923,0.0395,Medium
SOMERSET OPERATING CO LLC,BARKER,NY,43.359245,-78.60454,0.165685266,23823915.53,25.00579,1419.4,89.834015,15.800252,0.04,Medium
DUTCH HILL WIND PROJECT,COHOCTON,NY,42.545944,-77.503006,0.17738691,23823915.53,25.10344,1535.1,91.471794,16.782223,0.002,Low
SAFE HARBOR,CONESTOGA,PA,39.924076,-76.38998,0.185310587,23823915.53,23.93157,0,91.14875,0,0.0025,Low
BEAVER DAM,CANTON TOWNSHIP,PA,41.612232,-76.84078,0.171424404,23823915.53,25.10344,1452.6,91.42057,15.889203,0.0025,Low
GOOD SPRING NGCC FACILITY,GOOD SPRING,PA,40.62361,-76.46194,0.152498215,23823915.53,24.81047,245.4,89.76511,2.7338016,0.0025,Low
WESTWOOD GENERATION LLC,TREMONT,PA,40.61877,-76.450455,0.193310112,23823915.53,25.2011,570.5,90.489716,6.304584,0.0025,Low
HOLTWOOD,HOLTWOOD,PA,39.827274,-76.33196,0.170722276,23823915.53,25.00579,0,90.845276,0,0.0025,Low
ALPACA,CANTON TOWNSHIP,PA,41.663055,-76.80556,0.20636031,23823915.53,25.39641,1149.6,89.28833,12.875143,0,Low
ARMENIA MOUNTAIN WIND FARM,MAINESBURG,PA,41.75989,-76.85534,0.202605486,23823915.53,25.2011,245.4,90.46858,2.712544,0.0025,Low
IRONWOOD LLC,LEBANON,PA,40.35131,-76.36578,0.184374362,23823915.53,24.90813,935.1,90.39484,10.344617,0.0025,Low
FOSTER WHEELER MT CARMEL COGEN,MARION HEIGHTS,PA,40.81119,-76.45295,0.163434714,23823915.53,25.10344,1558.1,91.628746,17.00449,0.002,Low
YORK ENERGY CENTER,DELTA,PA,39.738964,-76.30773,0.191200882,23823915.53,25.39641,0,90.29524,0,0,Low
PINE GROVE,PINE GROVE,PA,40.556164,-76.38928,0.125601172,23823915.53,25.00579,939.3,89.31173,10.517096,0.0025,Low
MUDDY RUN,DRUMORE,PA,39.80762,-76.299446,0.187194899,23823915.53,25.10344,608.6,91.56688,6.646508,0.0025,Low
MILL SEAT RENEWABLE ENERGY FACILITY,BERGEN,NY,43.063408,-77.931984,0.189344347,23823915.53,24.90813,245.4,90.329185,2.7167299,0.01,Low
BROAD MOUNTAIN,HEGINS,PA,40.66961,-76.38072,0.180043623,23823915.53,25.39641,570.2,90.67413,6.2884526,0,Low
PEACH BOTTOM,DELTA,PA,39.759018,-76.26858,0.18973738,23823915.53,25.10344,1561.4,91.67064,17.032717,0.002,Low
MONROE LIVINGSTON GAS RECOVERY,SCOTTVILLE,NY,42.98859,-77.79649,0.170440137,23823915.53,24.90813,245.4,89.92924,2.7288122,0.0035,Low
WATERPORT,WATERPORT,NY,43.327114,-78.23888,0.1547236,23823915.53,25.2011,1229.6,89.519646,13.735533,0.0405,Medium
WMPI PTY LLC,GILBERTON,PA,40.79306,-76.3725,0.163958386,23823915.53,25.10344,671.7,91.34579,7.353377,0.0025,Low
KEYSTONE SOLAR,QUARRYVILLE,PA,39.861813,-76.22189,0.154139772,23823915.53,24.81047,1296.9,89.71141,14.456354,0.0025,Low
ECOGEN WIND,BRANCHPORT,NY,42.58694,-77.3125,0.167283863,23823915.53,24.81047,245.4,89.69279,2.736006,0.0025,Low
DART CONTAINER CORP,LEOLA,PA,40.08639,-76.17604,0.206462994,23823915.53,25.39641,1549,91.76654,16.879791,0,Low
WASHINGTON ST COMMUNITY SOLAR FARM #4,OGDEN,NY,43.175,-77.849,0.169521108,23823915.53,24.90813,1498.2,89.97118,16.651999,0.0195,Low
WASHINGTON ST COMMUNITY SOLAR FARM #1,OGDEN,NY,43.173,-77.846,0.160748869,23823915.53,25.10344,1649.9,91.57657,18.016619,0.019,Low
WASHINGTON ST COMMUNITY SOLAR FARM #3,OGDEN,NY,43.172,-77.844,0.1683442,23823915.53,24.90813,245.4,89.34068,2.746789,0.0185,Low
"TPE PENNSYLVANIA SOLAR 1, LLC",EPHRATA,PA,40.19853,-76.16159,0.14071323,23823915.53,25.2011,719.9,89.595634,8.03499,0.0025,Low
CHAMBERS ROAD SOLAR,BIG FLATS,NY,42.187443,-76.894394,0.166475505,23823915.53,24.81047,245.4,90.19867,2.720661,0.0025,Low
KEUKA,TOWN OF WAYNE,NY,42.49417,-77.11944,0.153313652,23823915.53,24.81047,1251.6,89.797195,13.938074,0.0025,Low
L&S SWEETNERS,LEOLA,PA,40.09056,-76.14556,0.189887837,23823915.53,24.90813,245.4,89.36417,2.746067,0.0025,Low
"RIT HENRIETTA SOLAR 1, LLC",ROCHESTER,NY,43.0762,-77.66724,0.185466915,23823915.53,24.02922,718.2,90.97586,7.894402,0.014,Low
NORTHER TIER LANDFILL,BURLINGTON,PA,41.77888,-76.62562,0.162339136,23823915.53,24.02922,779.6,90.93527,8.573131,0.0025,Low
TALENENERGY MARTINS CREEK LLC FISHBACH,POTTSVILLE,PA,40.68906,-76.21964,0.168133929,23823915.53,25.10344,1672.9,91.59663,18.263773,0.002,Low
ROUTE 5 & 20 COMMUNITY SOLAR FARM,E BLOOMFIELD,NY,42.899,-77.461,0.162837625,23823915.53,23.93157,764,91.15647,8.381193,0.0035,Low
LOCUST RIDGE II LLC,SHENANDOAH,PA,40.829605,-76.24262,0.146408513,23823915.53,25.2011,1518,89.58595,16.94462,0.002,Low
HICKORY GROVE #2,HORSEHEADS,NY,42.186,-76.845,0.178691849,23823915.53,24.90813,245.4,89.38441,2.7454453,0.0025,Low
HICKORY GROVE #1,HORSEHEADS,NY,42.18683,-76.84506,0.168137744,23823915.53,24.02922,705.1,90.96205,7.751584,0.0025,Low
STATE ROUTE 64N COMMUNITY SOLAR FARM,EAST BLOOMFIELD,NY,42.915,-77.454,0.181786776,23823915.53,24.41985,1235.6,89.47424,13.809561,0.0035,Low
WATKINS GLEN WIND ENERGY CENTER,TOWN OF DIX,NY,42.338333,-76.9275,0.207582712,23823915.53,24.90813,0,90.08617,0,0.0025,Low
JOHN B RICH MEMORIAL POWER STATION,FRACKVILLE,PA,40.790527,-76.19824,0.172055259,23823915.53,25.10344,794.8,91.2795,8.707321,0.0025,Low
MONROE COMMUNITY COLLEGE PLANT,ROCHESTER,NY,43.10414,-77.610016,0.169425741,23823915.53,25.10344,577.1,91.69769,6.293506,0.02,Low
UNIVERSITY OF ROCHESTER,ROCHESTER,NY,43.12366,-77.62862,0.172746047,23823915.53,24.90813,1397.1,90.04247,15.51601,0.0195,Low
ROCHESTER 9,ROCHESTER,NY,43.15105,-77.65994,0.176237211,23823915.53,23.93157,793.2,91.06321,8.710433,0.0185,Low
IOLA POWERHOUSE & COGENERATION FACILITY,ROCHESTER,NY,43.112106,-77.613815,0.152930096,23823915.53,25.00579,957.3,89.81178,10.658958,0.0185,Low
DAUM SOLAR,RUSHVILLE,NY,42.7608,-77.24733,0.142973602,23823915.53,25.39641,245.4,89.25897,2.7493036,0,Low
WHEELABRATOR FRACKVILLE ENERGY,FRACKVILLE,PA,40.78238,-76.17618,0.229736984,23823915.53,24.90813,1030.5,89.40141,11.526664,0.0025,Low
CITY OF ROCHESTER SOLAR,ROCHESTER,NY,43.178074,-77.67643,0.297312111,23823915.53,25.39641,577.1,91.80793,6.2859497,0.064193548,High
MARTIN LIMESTONE SOLAR ARRAY,NEW HOLLAND,PA,40.105846,-76.05935,0.137674943,23823915.53,24.90813,1298.7,90.13957,14.407656,0.0025,Low
BREESPORT ROAD COMMUNITY SOLAR FARM,BALDWIN,NY,42.088,-76.713,0.175369248,23823915.53,25.10344,853.5,91.3726,9.340875,0.0025,Low
ST NICHOLAS COGEN PROJECT,SHENANDOAH,PA,40.82257,-76.173515,0.193641037,23823915.53,24.02922,806.5,90.876144,8.874717,0.0025,Low
MILAN,MILAN,PA,41.894444,-76.58278,0.180043623,23823915.53,25.39641,934.4,90.67377,10.305076,0,Low
BURRITT RD COMMUNITY SOLAR FARM,PARMA,NY,43.275,-77.764,0.149419829,23823915.53,25.2011,652.2,89.58195,7.2804847,0.04,Medium
ROCHESTER 26,ROCHESTER,NY,43.152565,-77.60992,0.157032043,23823915.53,25.2011,940.4,90.50378,10.390727,0.0185,Low
ROCHESTER 3,ROCHESTER,NY,43.16231,-77.618385,0.169975013,23823915.53,24.90813,836.2,90.37432,9.252628,0.0195,Low
ROCHESTER 2,ROCHESTER,NY,43.161343,-77.615036,0.189267039,23823915.53,25.10344,577.4,91.75434,6.29289,0.019,Low
ROCHESTER 5,ROCHESTER,NY,43.180283,-77.627495,0.163906753,23823915.53,24.90813,1374.4,90.111305,15.252249,0.0215,Medium
CANANDAIGUA SOLAR ARRAY,CANANDAIGUA,NY,42.86887,-77.28456,0.314986914,23823915.53,25.00579,245.4,89.86609,2.7307296,0.021,Low
CANANDAIGUA WESTBROOK SOLAR ARRAY,CANANDAIGUA,NY,42.869087,-77.28446,0.175784379,23823915.53,25.00579,245.4,89.82886,2.7318616,0.0035,Low
TURNER RD COMMUNITY SOLAR PROJECT,BALDWIN,NY,42.09475,-76.67673,0.170026824,23823915.53,25.2011,244.4,89.56418,2.7287695,0.0025,Low
VULCRAFT SOLAR,CHEMUNG,NY,42.004673,-76.61777,0.187423497,23823915.53,25.10344,1722.1,91.71127,18.777407,0.002,Low
"RED-ROCHESTER, LLC",ROCHESTER,NY,43.1994,-77.6314,0.136060566,23823915.53,24.41985,1200,89.50835,13.406571,0.04,Medium
LOCUST RIDGE,MAHANOY CITY,PA,40.855114,-76.12929,0.171492398,23823915.53,24.90813,245.4,90.01585,2.7261865,0.0025,Low
"MONROE COUNTY SITES C, D, & E",HILTON,NY,43.31702,-77.74392,0.154419795,23823915.53,25.10344,658,91.53282,7.1886783,0.04,Medium
ROCHESTER 7,ROCHESTER,NY,43.268944,-77.63142,0.074322872,23823915.53,24.90813,813.6,90.09199,9.03077,0.04,Medium
MOXIE FREEDOM GENERATION PLANT,SALEM TOWNSHIP,PA,41.113056,-76.15806,0.168996528,23823915.53,23.93157,768.4,91.046074,8.439683,0.0025,Low
TALENENERGY SUSQUEHANNA,BERWICK,PA,41.091904,-76.14627,0.58248961,23823915.53,25.00579,770.7,90.7847,8.489316,0.02,Low
LANCHESTER GENERATING STATION,NARVON,PA,40.111927,-75.95313,0.198478848,23823915.53,24.02922,721.5,90.95061,7.9328775,0.0025,Low
HIGH ACRES GAS RECOVERY,FAIRPORT,NY,43.08166,-77.38164,0.187423497,23823915.53,25.10344,692.3,91.71099,7.548713,0.016,Low
PANDA LIBERTY GENERATION PLANT,TOWANDA,PA,41.7675,-76.39,0.150557593,23823915.53,24.32219,0,89.44134,0,0.0025,Low
WOLF RUN ENERGY,WILMOT TOWNSHIP,PA,41.612484,-76.29919,0.165461183,23823915.53,24.81047,587.3,90.19083,6.511749,0.0025,Low
GRANGER ENERGY OF MORGANTOWN,MORGANTOWN,PA,40.174564,-75.91369,0.182374433,23823915.53,25.2011,0,89.56928,0,0.0025,Low
HAZLE SPINDLE,HAZEL TOWHSHIP,PA,40.947464,-76.053375,0.189706877,23823915.53,25.10344,755.1,91.5148,8.251124,0.0025,Low
YELLOW MILLS RD #3 COMMUNITY SOLAR FARM,FARMINGTON,NY,43.0153,-77.26066,0.166005552,23823915.53,25.10344,1659.8,91.68334,18.103617,0.0085,Low
YELLOW MILLS RD #2 COMMUNITY SOLAR FARM,FARMINGTON,NY,43.01642,-77.26091,0.184046149,23823915.53,25.39641,1204,90.76857,13.2645035,0,Low
YELLOW MILLS RD #1 COMMUNITY SOLAR FARM,FARMINGTON,NY,43.01785,-77.26049,0.164786354,23823915.53,25.10344,1125.3,91.3537,12.318056,0.009,Low
FREY RD #1 COMMUNITY SOLAR FARM,MACEDON,NY,43.099865,-77.34513,0.179237559,23823915.53,25.10344,649,91.5553,7.088612,0.02,Low
EVERGREEN COMMUNITY POWER,READING,PA,40.32551,-75.922585,0.155364096,23823915.53,24.90813,1203.8,89.90518,13.389663,0.0025,Low
FREY RD #2 COMMUNITY SOLAR FARM,MACEDON,NY,43.09989,-77.3435,0.152930096,23823915.53,25.00579,245.4,89.812126,2.7323704,0.0195,Low
ONTELAUNEE ENERGY CENTER,READING,PA,40.422035,-75.93586,0.145948112,23823915.53,24.32219,1133.5,89.4576,12.670807,0.0025,Low
GREENIDGE GENERATION LLC,DRESDEN,NY,42.679382,-76.94829,0.314458489,23823915.53,24.90813,570.5,89.96098,6.341638,0.021,Low
HAZELTON,HAZELTON,PA,40.92827,-76.04082,0.171492398,23823915.53,24.90813,570.5,90.01685,6.337702,0.0025,Low
ROMARK PA SOLAR,HAZLE TOWNSHIP,PA,40.936157,-76.039734,0.158344507,23823915.53,25.39641,1221.5,89.25198,13.68597,0,Low
TEMPLE SOLAR ARRAYS,READING,PA,40.424427,-75.92544,0.172055259,23823915.53,25.10344,724.7,91.28084,7.9392343,0.0025,Low
TITUS,BIRSBORO,PA,40.30591,-75.90808,0.181758165,23823915.53,25.10344,970.5,91.32852,10.626472,0.0025,Low
TALENENERGY MARTINS CREEK LLC HARWOOD,WEST HAZLETON,PA,40.93529,-76.02838,0.172517672,23823915.53,25.39641,570.2,90.71032,6.2859445,0,Low
ONTARIO LFGTE,STANLEY,NY,42.859043,-77.08431,0.184046149,23823915.53,25.39641,800.2,90.76941,8.815745,0,Low
ROUTE 14A CDG SOLAR NORTH AND SOUTH LLC,GENEVA,NY,42.817333,-77.041565,0.173778653,23823915.53,24.90813,1344.8,89.20019,15.076201,0.0035,Low
FINGER LAKES SOLAR I,GENEVA,NY,42.81726,-77.03996,0.194048658,23823915.53,24.81047,245.4,90.1812,2.721188,0.0035,Low
MONROE COUNTY SITES A & B,WEBSTER,NY,43.173016,-77.39217,0.182348311,23823915.53,24.90813,0,90.3592,0,0.0185,Low
KLINE TOWNSHIP COGEN FACILITY,MCADOO,PA,40.87345,-75.99343,0.165744767,23823915.53,24.90813,571.2,90.15208,6.3359604,0.0025,Low
MORGANTOWN SOLAR PARK,MORGANTOWN,PA,40.15207,-75.86592,0.161359727,23823915.53,24.90813,1613.4,90.0631,17.914106,0.002,Low
SECCRA COMMUNITY LANDFILL,WEST GROVE,PA,39.863514,-75.83874,0.366187096,23823915.53,24.90813,828.5,90.39002,9.165834,0.02,Low
HUNLOCK POWER STATION,HUNLOK CREEK,PA,41.201313,-76.06931,0.16779688,23823915.53,24.90813,514.7,89.989525,5.7195544,0.0025,Low
BLACK OAK WIND FARM,ENFIELD,NY,42.40222,-76.6704,0.19062604,23823915.53,25.39641,1243.4,90.27916,13.772836,0,Low
HUNLOCK UNIT 4,HUNLOCK GREEN,PA,41.202923,-76.06849,0.187083945,23823915.53,25.10344,721.5,91.52854,7.8827868,0.0025,Low
CORNELL GENEVA SOLAR FARM,SENECA,NY,42.86257,-77.033325,0.170484304,23823915.53,23.93157,832.7,91.14327,9.136166,0.0035,Low
MARLBORO MUSHROOMS SOLAR FIELD,WEST GROVE,PA,39.88278,-75.829445,0.180043623,23823915.53,25.39641,671.9,90.67158,7.41026,0,Low
MAIDENCREEK BIOMASS PLANT,MAIDENCREEK TOWNSHIP,PA,40.482113,-75.88811,0.16981855,23823915.53,25.39641,773.6,90.75653,8.523904,0,Low
PASTO SOLAR,SPENCER,NY,42.21003,-76.523766,0.161665499,23823915.53,24.90813,1013.5,89.91587,11.271647,0.0025,Low
HARBEC ENERGY,ONTARIO,NY,43.226883,-77.36133,0.151876807,23823915.53,24.32219,1237.4,89.46515,13.831084,0.04,Medium
"PIONEER CROSSING ENERGY, LLC",BIRDSBORO,PA,40.27531,-75.81724,0.187423497,23823915.53,25.10344,1637.6,91.709885,17.85631,0.002,Low
PODUNK ROAD,ENFIELD,NY,42.46806,-76.65289,0.184964925,23823915.53,24.90813,1166.8,90.11837,12.947415,0.0025,Low
BIRDSBORO POWER,BIRDSBORO,PA,40.26852,-75.79967,0.187423497,23823915.53,25.10344,577.1,91.71796,6.2921157,0.0025,Low
ZOTOS INTERNATIONAL WPGF,GENEVA,NY,42.886246,-76.96759,0.206462994,23823915.53,25.10344,577.1,91.758415,6.2893414,0.0035,Low
NEWFIELD COMMUNITY SOLAR LLC,NEWFIELD,NY,42.39131,-76.56424,0.176439196,23823915.53,25.10344,857.2,91.286575,9.390209,0.0025,Low
MEHOOPANY WIND ENERGY LLC,NOXEN,PA,41.48421,-76.08129,0.18560186,23823915.53,24.81047,1150.6,90.1719,12.760073,0.0025,Low
PANTHER CREEK ENERGY FACILITY,NESQUEHONING,PA,40.855618,-75.877556,0.188674673,23823915.53,25.39641,1603.5,91.84343,17.45906,0,Low
ENFIELD COMMUNITY SOLAR,ITHACA,NY,42.45331,-76.59481,0.200003982,23823915.53,24.90813,698.8,89.919464,7.7713985,0.0025,Low
FURNACE RD COMMUNITY SOLAR FARM,ONTARIO,NY,43.241,-77.27,0.070989333,23823915.53,25.39641,623,90.687225,6.8697658,0,Low
R E GINNA NUCLEAR POWER PLANT,ONTARIO,NY,43.278046,-77.30872,0.146641061,23823915.53,24.32219,1092.1,89.43872,12.210594,0.0405,Medium
PA SOLAR PARK,NESQUEHONING,PA,40.86014,-75.85221,0.156730905,23823915.53,25.00579,1485.4,89.85727,16.53066,0.002,Low
CAYUGA OPERATING COMPANY,LANSING,NY,42.60195,-76.63443,0.172055259,23823915.53,25.10344,877.7,91.278595,9.615617,0.0025,Low
PROCTER & GAMBLE MEHOOPANY MILL,MEHOOPANY,PA,41.57426,-76.04323,0.210921213,23823915.53,25.39641,577.4,91.89035,6.283576,0,Low
WATERLOO HYDROELECTRIC PROJECT,WATERLOO,NY,42.901913,-76.86233,0.169801965,23823915.53,25.10344,983.9,91.227615,10.785111,0.0035,Low
LONGWOOD GARDENS,KENNETT SQUARE,PA,39.867058,-75.66719,0.199659184,23823915.53,25.39641,570.2,90.609,6.292973,0,Low
TOWN OF WILLIAMSON LANDFILL PV,WILLIAMSON,NY,43.24512,-77.17359,0.198478848,23823915.53,24.02922,570.2,90.948685,6.2694693,0.0395,Medium
AQUA INGRAMS MILL,WEST CHESTER,PA,39.9647,-75.6578,0.19528693,23823915.53,25.39641,570.2,90.62446,6.2918997,0,Low
CORNELL HYDRO,ITHACA,NY,42.452076,-76.48508,0.171780989,23823915.53,24.02922,718.2,91.00454,7.891914,0.0025,Low
ROUNDTOP,MESHOPPEN,PA,41.65778,-76.049164,0.151962146,23823915.53,25.00579,731.4,89.81957,8.142991,0.0025,Low
CORNELL UNIVERSITY CENTRAL HEAT,ITHACA,NY,42.442917,-76.47472,0.166005552,23823915.53,25.10344,577.1,91.68718,6.2942276,0.0025,Low
SENECA ENERGY,SENECA FALLS,NY,42.92708,-76.84069,0.171816707,23823915.53,25.2011,1420.7,89.54764,15.865299,0.0035,Low
STOWE POWER PRODUCTION PLANT,POTTSTOWN,PA,40.27244,-75.67035,0.176453918,23823915.53,25.00579,717.8,90.84285,7.9015574,0.0025,Low
FLOREY KNOBB,MESHOPPEN,PA,41.599445,-76.00917,0.174414217,23823915.53,25.39641,577.4,91.92513,6.281198,0,Low
MUSGRAVE WEST SOLAR FARM,AURORA,NY,42.731743,-76.66704,0.183046073,23823915.53,25.2011,1032.9,90.51455,11.411426,0.0125,Low
MUSGRAVE EAST SOLAR FARM,AURORA,NY,42.73061,-76.66222,0.201788679,23823915.53,24.90813,1422.5,90.04375,15.797876,0.0125,Low
WEST STATION (DE),WILMINGTON,DE,39.728798,-75.62729,0.185875803,23823915.53,24.02922,1032.9,91.03127,11.34665,0.0025,Low
SUNEAST DOG CORNERS SOLAR PROJECT,LEDYARD,NY,42.7443,-76.66531,0.176439196,23823915.53,25.10344,779.6,91.28518,8.540269,0.013,Low
ELLIS SOLAR,ITHACA,NY,42.44463,-76.433235,0.173183635,23823915.53,25.10344,770.7,91.3628,8.435599,0.0025,Low
SENECA FALLS HYDROELECTRIC PROJECT,SENECA FALLS,NY,42.9153,-76.78672,0.181310341,23823915.53,25.10344,678.6,91.65966,7.4034753,0.0035,Low
CORNELL SNYDER ROAD SOLAR ARRAY,LANSING,NY,42.499386,-76.461334,0.176537141,23823915.53,25.2011,1209.7,90.53814,13.36122,0.0025,Low
MOSER GENERATING STATION,POTTSTOWN,PA,40.2352,-75.619286,0.154757291,23823915.53,24.90813,612.9,89.87816,6.819232,0.0025,Low
GASKILL RD COMMUNITY SOLAR FARM,OWEGO,NY,42.116,-76.183,0.15958643,23823915.53,25.39641,577.4,91.92109,6.281475,0,Low
TALENENERGY MARTINS CREEK LLC JENKINS,LAFLIN,PA,41.28238,-75.81643,0.168862075,23823915.53,23.93157,754,91.07117,8.27924,0.0025,Low
LIMERICK,SANATOGA,PA,40.224277,-75.58741,0.189922124,23823915.53,25.10344,810.3,91.25873,8.87915,0.0025,Low
SOUTH CAMPUS SOLAR,WILMINGTON,DE,39.78084,-75.547676,0.137485668,23823915.53,24.90813,1044.3,89.958534,11.608682,0.0025,Low
WHA SOUTHBRIDGE SOLAR PARK,WILMINGTON,DE,39.723663,-75.54704,0.168133929,23823915.53,25.10344,1672.9,91.59663,18.263773,0.002,Low
CHRISTIANA,WILMINGTON,DE,39.73061,-75.53703,0.171780989,23823915.53,24.02922,740.8,91.00256,8.14043,0.0025,Low
WIND PARK BEAR CREEK,BEAR CREEK,PA,41.23236,-75.76765,0.184002146,23823915.53,25.39641,1618.7,90.63394,17.859755,0,Low
TREXLERTOWN SOLAR ARRAY NORTH AND SOUTH,ALLENTOWN,PA,40.55659,-75.59318,0.154834896,23823915.53,25.2011,447,89.52734,4.992888,0.0025,Low
DD HAY ROAD SOLAR 23 LLC,NEW CASTLE,DE,39.735992,-75.51273,0.183789253,23823915.53,24.90813,897.2,89.33714,10.042855,0.0025,Low
CROMBY GENERATING STATION,PHEONIXVILLE,PA,40.1531,-75.5294,0.142973602,23823915.53,25.39641,265.1,89.258606,2.970022,0,Low
HAY ROAD,WILMINGTON,DE,39.74382,-75.50647,0.155943394,23823915.53,25.39641,888.1,90.23547,9.842028,0,Low
EDGE MOOR,WILMINGTON,DE,39.738384,-75.50366,0.141883254,23823915.53,25.00579,1584.9,89.32263,17.743544,0.002,Low
OXBOW CREEK,FACTORYVILLE,PA,41.608612,-75.87056,0.178127125,23823915.53,25.00579,780.8,90.820076,8.5972185,0.0025,Low
DRYDEN RD #2 COMMUNITY SOLAR FARM,DRYDEN,NY,42.48782,-76.319984,0.173126131,23823915.53,24.81047,612.9,89.79386,6.8256335,0.0025,Low
PICKERING SOLAR,PHOENIXVILLE,PA,40.11964,-75.48808,0.182944223,23823915.53,25.2011,923.7,90.54459,10.201603,0.0025,Low
TOMPKINS CORTLAND COMMUNITY COLLEGE,DRYDEN,NY,42.505726,-76.28761,0.278924584,23823915.53,25.39641,577.4,91.90095,6.2828517,0,Low
AUBURN STATE STREET,AUBURN,NY,42.92839,-76.59218,0.166939273,23823915.53,25.10344,757.7,91.73686,8.259493,0.0035,Low
HARFORD SOLAR FARM,HARFORD,NY,42.443707,-76.23527,0.138444379,23823915.53,24.90813,1126.8,89.228294,12.628282,0.0025,Low
AUBURN LFG ENERGY FACILITY,AUBURN,NY,42.9442,-76.59378,0.169245079,23823915.53,25.39641,954.1,90.324,10.563085,0,Low
TAYLOR ENERGY PARTNERS LP,TAYLOR,PA,41.38778,-75.71722,0.165222317,23823915.53,23.93157,1422.3,91.18411,15.598112,0.0025,Low
MARCUS HOOK REFINERY COGEN,MARCUS HOOK,PA,39.810345,-75.428,0.248157069,23823915.53,25.39641,577.4,92.09915,6.2693305,0,Low
PEDRICKTOWN COGENERATION COMPANY LP,PEDRICKTOWN,NJ,39.7668,-75.4238,0.174536556,23823915.53,23.93157,905.2,91.05969,9.940732,0.0025,Low
MARCUS HOOK ENERGY LP,MARCUS HOOK,PA,39.806942,-75.42181,0.148032174,23823915.53,24.90813,809.7,90.41398,8.955474,0.0025,Low
VICTORY MILLS,VICTORY MILLS,NY,42.921467,-76.54855,0.143975824,23823915.53,24.32219,1098.8,89.450356,12.283909,0.0035,Low
LOGAN GENERATING COMPANY LP,SWEDESBORO,NJ,39.792362,-75.40674,0.189260766,23823915.53,25.10344,1118.4,91.43155,12.232101,0.0025,Low
AES ADA ENERGY STORAGE ARRAY,NORRISTOWN,PA,40.12183,-75.41725,0.171894506,23823915.53,25.2011,887.6,90.459404,9.812137,0.0025,Low
COVANTA DELAWARE VALLEY,CHESTER,PA,39.82646,-75.388435,0.173736691,23823915.53,24.02922,570.2,90.962166,6.2685404,0.0025,Low
NORTHAMPTON GENERATING COMPANY LP,NORTHAMPTON,PA,40.69219,-75.47881,0.187160134,23823915.53,24.90813,1219.3,90.01874,13.544958,0.0025,Low
AES JOHNSON CITY,JOHNSON CITY,NY,42.1125,-75.97611,0.173637211,23823915.53,25.10344,796.9,91.46551,8.712574,0.0025,Low
GMMM WESTOVER,JOHNSON CITY,NY,42.11156,-75.97409,0.183524519,23823915.53,24.02922,756.9,90.88871,8.327767,0.0025,Low
CHESTER GENERATING STATION,CHESTER,PA,39.83015,-75.383705,0.165103316,23823915.53,25.10344,1036.5,91.26764,11.356709,0.0025,Low
TALENENERGY MARTIN CREEK LLC ALLENTOWN,ALLENTOWN,PA,40.60839,-75.45599,0.140818328,23823915.53,25.00579,0,89.30658,0,0.0025,Low
CHESTER OPERATIONS,CHESTER,PA,39.843735,-75.358284,0.152930096,23823915.53,25.00579,570.5,89.81192,6.3521633,0.0025,Low
BROOME COUNTY,CONKLIN,NY,42.104733,-75.93073,0.168137744,23823915.53,24.02922,748.5,90.956825,8.229178,0.0025,Low
BRIDGEPORT DISPOSAL SOLAR FARM,GLOUCESTER,NJ,39.787422,-75.34916,0.430958211,23823915.53,25.39641,1064.8,90.26577,11.796277,0.054193548,High
BINGHAMTON COGEN,BINGHAMTON,NY,42.107174,-75.92782,0.53511709,23823915.53,25.2011,0,90.43639,0,0.0195,Low
HOP BOTTOM,LENOX,PA,41.668056,-75.725,0.156210572,23823915.53,25.2011,1412.8,89.59992,15.767871,0.0025,Low
POCONO SOLAR PROJECT,LONG POND,PA,41.060883,-75.5154,0.178386763,23823915.53,25.10344,0,91.40926,0,0.0025,Low
LIBERTY ELECTRIC POWER PLANT,EDDYSTONE,PA,39.86227,-75.33551,0.161529317,23823915.53,25.10344,655.8,91.2518,7.1867075,0.0025,Low
EDDYSTONE GENERATING STATION,EDDYSTONE,PA,39.85932,-75.32416,0.244079694,23823915.53,25.39641,577.4,91.99493,6.276433,0,Low
NANTICOKE LFG,BINGHAMTON,NY,42.241753,-75.97314,0.168121442,23823915.53,24.90813,862.9,90.33393,9.552335,0.0025,Low
KEYSTONE RECOVERY,THROOP,PA,41.435787,-75.59474,0.287228644,23823915.53,25.39641,577.4,91.98873,6.276856,0.01,Low
COVANTA PLYMOUTH RENEWABLE ENERGY,CONSHOHOCKEN,PA,40.096386,-75.30998,0.168475434,23823915.53,24.90813,570.5,90.36487,6.3132944,0.0025,Low
IKEA CONSHOHOCKEN ROOFTOP PV SYSTEM,CONSHOHOCKEN,PA,40.094624,-75.30641,0.139020309,23823915.53,24.90813,932.2,89.18745,10.452143,0.0025,Low
WEST POINT (PA),WEST POINT,PA,40.2128,-75.30038,0.190993935,23823915.53,25.39641,577.4,91.95721,6.279008,0,Low
MERCK - UPPER GWYNEDD SOLAR ARRAY,NORTH WALES,PA,40.2154,-75.28309,0.181758165,23823915.53,25.10344,1069.2,91.328995,11.707126,0.0025,Low
PAULSBORO REFINERY,PAULSBORO,NJ,39.839413,-75.25677,0.162333816,23823915.53,25.10344,976,91.39524,10.678893,0.0025,Low
MICKLETON STATION,MICKLETON,NJ,39.81288,-75.24884,0.164786354,23823915.53,25.10344,1014.3,91.358986,11.102356,0.0025,Low
LACKAWANNA ENERGY CENTER,JESSUP,PA,41.472034,-75.54552,0.168133929,23823915.53,25.10344,741.5,91.59716,8.095229,0.0025,Low
BETHLEHEM POWER PLANT,BETHLEHEM,PA,40.618187,-75.314186,0.163359672,23823915.53,24.90813,806.4,90.00801,8.959203,0.0025,Low
ARCHBALD POWER STATION,ARCHBALD,PA,41.484932,-75.54028,0.186305061,23823915.53,25.39641,790,90.75248,8.704996,0,Low
WHITEMARSH CENTRAL UTILITY PLANT,LAFAYETTE HILL,PA,40.0959,-75.246994,0.171424404,23823915.53,25.10344,606.6,91.422005,6.635164,0.0025,Low
BETHLEHEM RENEWABLE ENERGY LLC,BETHLEHEM,PA,40.62153,-75.310196,0.188312247,23823915.53,24.5175,1538,89.67308,17.15119,0.002,Low
PARADISE SOLAR ENERGY CENTER,WEST DEPTFORD,NJ,39.835835,-75.2225,0.175683677,23823915.53,25.10344,1040.2,91.49966,11.368348,0.0025,Low
WEST DEPTFORD ENERGY STATION,WEST DEPTFORD,NJ,39.8414,-75.2214,0.190555543,23823915.53,25.00579,527.2,90.81242,5.805373,0.0025,Low
"JOHNSON MATTHEY, INC. SOLAR",PAULSBORO,NJ,39.817444,-75.215355,0.185688987,23823915.53,24.02922,881.6,90.94174,9.6941185,0.0025,Low
PHILADELPHIA REFINERY,PHILADELPHIA,PA,39.9058,-75.2122,0.258711636,23823915.53,25.39641,577.4,92.13209,6.267089,0,Low
SPRING HOUSE,SPRING HOUSE,PA,40.18914,-75.21209,0.172626868,23823915.53,23.93157,641.5,91.05335,7.0453196,0.0025,Low
SCHUYLKILL GENERATING STATION,PHILA.,PA,39.942474,-75.18912,0.083825164,23823915.53,24.02922,570.2,90.965416,6.2683163,0.0025,Low
PSEG NATIONAL PARK GENERATING STATION,NATIONAL PARK,NJ,39.860023,-75.18505,0.162984431,23823915.53,25.10344,894.3,91.311005,9.794,0.0025,Low
GRAYS FERRY COGENERATION,PHILADELPHIA,PA,39.94223,-75.187675,0.165103316,23823915.53,25.10344,1211.7,91.27067,13.275897,0.0025,Low
NAVY YARD PEAKER STATION,PHILADELPHIA,PA,39.890224,-75.18554,0.186714172,23823915.53,25.39641,845.1,90.677864,9.319805,0,Low
500 VIRGINIA SOLAR,FT. WASHINGTON,PA,40.139503,-75.192085,0.185785323,23823915.53,24.02922,570.2,90.93638,6.270318,0.0025,Low
ANHEUSER-BUSCH BALDWINSVILLE,BALDWINSVILLE,NY,43.15154,-76.41484,0.17664887,23823915.53,25.2011,934.4,90.44933,10.330646,0.0185,Low
LINCOLN FINANCIAL FIELD,PHILADELPHIA,PA,39.903553,-75.16666,0.156256706,23823915.53,24.90813,767.4,89.9748,8.529055,0.0025,Low
EAGLE POINT POWER GENERATION,WESTVILLE,NJ,39.8713,-75.155685,0.191297084,23823915.53,25.39641,1220.5,90.72741,13.452385,0,Low
MINERAL POINT ENERGY,SUSQUEHANNA,PA,41.97711,-75.647446,0.170484304,23823915.53,23.93157,701.8,91.14014,7.7002296,0.0025,Low
PPL GLENDON LFGTE PLANT,GLENDON,PA,40.66778,-75.23222,0.189993039,23823915.53,23.93157,819.8,91.16601,8.992387,0.0025,Low
TEMPLE SEGF,PHILADELPHIA,PA,39.98023,-75.150764,0.16134043,23823915.53,25.00579,1392.8,89.82696,15.505368,0.0025,Low
GREEN KNIGHT ENERGY CENTER,PEN ARGYL,PA,40.859142,-75.262764,0.16779688,23823915.53,24.90813,1699.9,89.987175,18.890469,0.002,Low
OAKLAND DAM HYDROELECTRIC,OAKLAND,PA,41.944347,-75.61778,0.180694103,23823915.53,25.39641,1223.8,90.761536,13.4836855,0,Low
CRAYOLA SOLAR PROJECT,EASTON,PA,40.76055,-75.23845,0.165103316,23823915.53,25.10344,1012.4,91.26943,11.092432,0.0025,Low
WHEELABRATOR GLOUCESTER LP,WESTVILLE,NJ,39.87333,-75.13792,0.129641145,23823915.53,25.39641,577.4,92.26316,6.2581854,0,Low
SOUTHWARK,PHILADELPHIA,PA,39.913963,-75.135185,0.139220849,23823915.53,24.90813,545.6,89.23366,6.1142845,0.0025,Low
WAYMART WIND,FOREST CITY,PA,41.555756,-75.451324,0.1740385,23823915.53,25.2011,639.1,89.559235,7.136059,0.0025,Low
ONONDAGA ENERGY PARTNERS LP,CAMILLUS,NY,43.024315,-76.25583,0.187194899,23823915.53,25.10344,678.7,91.57062,7.411766,0.01,Low
CCMUA,CAMDEN,NJ,39.923058,-75.1275,0.179237559,23823915.53,25.10344,765.9,91.55612,8.365361,0.0025,Low
GLOUCESTER COMMUNITY COLLEGE SOLAR,SEWELL,NJ,39.776897,-75.12295,0.210623458,23823915.53,24.32219,631.4,89.46621,7.057413,0.0025,Low
RIVERSIDE RENEWABLE ENERGY LLC,GLOUCESTER CITY,NJ,39.90304,-75.125694,0.192703381,23823915.53,24.90813,1110.9,89.96959,12.347506,0.0025,Low
DELAWARE GENERATING STATION,PHILADELPHIA,PA,39.967075,-75.12705,0.172809705,23823915.53,25.10344,902.7,91.4939,9.866232,0.0025,Low
DG CAMDEN LLC HOLTEC,CAMDEN,NJ,39.91097,-75.12051,0.207777187,23823915.53,25.00579,514.9,89.33184,5.763902,0.0025,Low
CAMDEN PLANT HOLDING LLC,CAMDEN,NJ,39.91769,-75.119255,0.210921213,23823915.53,25.39641,577.4,91.8855,6.283908,0,Low
CAMDEN RESOURCE RECOVERY FACILITY,CAMDEN,NJ,39.909428,-75.11673,0.191200882,23823915.53,25.39641,1386.9,90.2931,15.359978,0,Low
KINSLEYS LANDFILL,SEWELL,NJ,39.791912,-75.11028,0.166376367,23823915.53,25.10344,577.1,91.63363,6.2979064,0.0025,Low
WRIGHTER ENERGY,THOMPSON,PA,41.87999,-75.55776,0.138444379,23823915.53,24.90813,377,89.22742,4.2251587,0.0025,Low
KINSLEY LANDFILL SOLAR,SEWELL,NJ,39.79333,-75.10639,0.231930941,23823915.53,24.90813,1125.4,89.178856,12.619584,0.0025,Low
BNB CAMDEN SOLAR,CAMDEN,NJ,39.93903,-75.10802,0.308513075,23823915.53,25.39641,577.4,91.85328,6.286112,0.056774194,High
GILBERT,MILFORD,NJ,40.56583,-75.16389,0.195227638,23823915.53,25.10344,1597.4,91.67083,17.42539,0.002,Low
MILFORD SOLAR FARM (NJ) LLC,MILFORD TOWNSHIP,NJ,40.614956,-75.15649,0.117926933,23823915.53,25.10344,1093.7,91.433685,11.961675,0.0025,Low
PWD NORTHEAST WPCP BIOGAS COGEN PLANT,PHILADELPHIA,PA,39.98861,-75.08333,0.168133929,23823915.53,25.10344,1656.5,91.595184,18.085012,0.002,Low
CH RESOURCES SYRACUSE,SOLVAY,NY,43.06684,-76.2247,0.171780989,23823915.53,24.02922,1027.4,91.004425,11.28956,0.01,Low
HARMONY,PHILLIPSBURG,NJ,40.75527,-75.17109,0.183560565,23823915.53,25.10344,704.9,91.34262,7.7170987,0.0025,Low
RICHMOND GENERATING STATION,PHILA.,PA,39.98471,-75.0751,0.53511709,23823915.53,25.2011,1151,90.43264,12.727705,0.021,Low
OSWEGO FALLS WEST,FULTON,NY,43.315746,-76.416664,0.171936095,23823915.53,24.90813,940,90.06569,10.436827,0.0405,Medium
ONONDAGA COUNTY- CLEARWATER,OSWEGO,NY,43.430496,-76.51987,0.147789061,23823915.53,24.81047,570.2,89.76798,6.3519306,0.04,Medium
SYRACUSE ENERGY,SYRACUSE,NY,43.06497,-76.2083,0.186880574,23823915.53,24.02922,966.5,91.02714,10.617712,0.01,Low
OSWEGO FALLS EAST,FULTON,NY,43.316246,-76.41489,0.165103316,23823915.53,25.10344,886.2,91.26609,9.710069,0.0405,Medium
GRANBY,FULTON,NY,43.323433,-76.42089,0.248157069,23823915.53,25.39641,577.4,92.09954,6.2693033,0,Low
FULTON HYDRO,FULTON,NY,43.32411,-76.41898,0.180694103,23823915.53,25.39641,1072.1,90.75829,11.812695,0,Low
"STRYKER 22, L.L.C.",ALPHA,NJ,40.66485,-75.143,0.13322258,23823915.53,25.39641,577.4,92.31448,6.254707,0,Low
BERRY PLASTICS SOLAR,PHILLIPSBURG,NJ,40.695393,-75.14669,0.181310341,23823915.53,25.10344,790.9,91.65107,8.629468,0.0025,Low
OSWEGO HARBOR POWER,OSWEGO,NY,43.45861,-76.5315,0.144564018,23823915.53,24.5175,655.5,89.67911,7.3093944,0.04,Medium
OWENS CORNING,GLOUCESTER TOWNSHIP,NJ,39.837875,-75.05316,0.151132971,23823915.53,24.90813,951.3,89.962326,10.574427,0.0025,Low
MINETTO,MINETTO,NY,43.400295,-76.47371,0.174919322,23823915.53,25.10344,671.2,91.45745,7.338932,0.04,Medium
OSWEGO COUNTY ENERGY RECOVERY,FULTON,NY,43.348907,-76.42509,0.074322872,23823915.53,24.90813,570.5,90.092545,6.3323774,0.04,Medium
NEWMAN (PA),PHILADELPHIA,PA,40.014153,-75.053406,0.156166136,23823915.53,24.41985,1601.3,89.481674,17.895285,0.002,Low
VARICK,OSWEGO,NY,43.448547,-76.505104,0.149015084,23823915.53,24.90813,1018.4,89.39588,11.392024,0.0405,Medium
HIGH DAM,OSWEGO,NY,43.443325,-76.49648,0.231930941,23823915.53,24.90813,291.4,89.17882,3.267592,0.0385,Medium
HOLLAND SOLAR,MILFORD,NJ,40.599743,-75.10862,0.179566383,23823915.53,25.39641,1033,90.31583,11.437641,0,Low
PHOENIX HYDRO PROJECT,PHOENIX,NY,43.22706,-76.30214,0.150174648,23823915.53,24.81047,0,89.78452,0,0.038,Medium
PENNSAUKEN SOLAR,PENNSAUKEN,NJ,39.98595,-75.04008,0.152172133,23823915.53,24.90813,1849.5,89.43001,20.680979,0.002,Low
PENNSAUKEN LANDFILL,PENNSAUKEN,NJ,39.98947,-75.04004,0.168202192,23823915.53,24.90813,1366.3,90.371605,15.118688,0.0025,Low
ONONDAGA COUNTY RESOURCE RECOVERY,JAMESVILLE,NY,43.004936,-76.115456,0.201282948,23823915.53,25.39641,1528,90.2682,16.927334,0,Low
CES CHERRY HILL SOLAR,CHERRY HILL,NJ,39.941853,-75.02621,0.19062604,23823915.53,25.39641,1057.1,90.27961,11.709177,0,Low
LOCKHEED MARTIN RMS SYRACUSE,LIVERPOOL,NY,43.109573,-76.189224,0.136060566,23823915.53,24.41985,655.5,89.50546,7.323575,0.018,Low
INDECK OSWEGO ENERGY CENTER,OSWEGO,NY,43.472,-76.4937,0.259532958,23823915.53,25.39641,577.4,92.22578,6.2607226,0,Low
TIMBER CREEK HS,SICKLERVILLE,NJ,39.760174,-75.01479,0.16391632,23823915.53,24.90813,852.8,89.964386,9.479307,0.0025,Low
CHERRY HILL,CHERRY HILL,NJ,39.876625,-75.00821,0.183789253,23823915.53,24.90813,1469,89.33802,16.443167,0.0025,Low
ONONDAGA COUNTY - METRO WATER BOARD,CLAY,NY,43.182568,-76.22517,0.179405168,23823915.53,25.39641,695.8,91.825806,7.57739,0,Low
WARREN COUNTY SOLAR,BELVIDERE,NJ,40.78878,-75.10512,0.170623571,23823915.53,24.90813,1145.3,90.40678,12.668298,0.0025,Low
LOWER MOUNT BETHEL ENERGY,BANGOR,PA,40.8019,-75.10744,0.182487205,23823915.53,24.5175,717.4,89.65224,8.002031,0.0025,Low
TALENENERGY MARTINS CREEK,BANGOR,PA,40.79781,-75.105804,0.1547236,23823915.53,25.2011,553,89.51787,6.177538,0.0025,Low
OSWEGO COUNTY - FULTON SOLAR,FULTON,NY,43.342045,-76.34717,0.169425741,23823915.53,25.10344,804.3,91.69819,8.771166,0.0405,Medium
ONONDAGA COUNTY- JAMESVILLE,JAMESVILLE,NY,42.985085,-76.06001,0.179551661,23823915.53,24.5175,1348,89.65639,15.03518,0.0035,Low
SITHE INDEPENDENCE STATION,OSWEGO,NY,43.49528,-76.45065,0.179405168,23823915.53,25.39641,577.4,91.834885,6.287371,0,Low
CARR STREET GENERATING STATION,EAST SYRACUSE,NY,43.061367,-76.08232,0.164786354,23823915.53,25.10344,609.9,91.35573,6.6761003,0.0105,Low
FRENCHTOWN III SOLAR,FRENCHTOWN,NJ,40.482994,-75.016136,0.18973738,23823915.53,25.10344,797.8,91.667244,8.7032175,0.0025,Low
SUNEAST CLAY SOLAR PROJECT,CLAY,NY,43.19255,-76.17359,0.129632145,23823915.53,25.39641,577.4,92.2105,6.2617593,0,Low
FRENCHTOWN I SOLAR,FRENCHTOWN,NJ,40.521812,-75.012535,0.188031271,23823915.53,24.90813,943.7,89.99747,10.48585,0.0025,Low
DSM NUTRITIONAL PRODUCTS SOLAR,TOWNSHIP OF WHITE,NJ,40.836807,-75.06547,0.15571709,23823915.53,25.2011,1396.4,89.53549,15.59605,0.0025,Low
PORTLAND (PA),MT. BETHEL,PA,40.909542,-75.07911,0.248157069,23823915.53,25.39641,577.4,92.08749,6.2701244,0,Low
DSM SOLAR,COLUMBIA,NJ,40.845222,-75.06152,0.165114895,23823915.53,25.29875,1564.7,89.62543,17.458216,0.002,Low
ONONDAGA COUNTY - OAK ORCHARD WWTP,CLAY,NY,43.172718,-76.13012,0.13322258,23823915.53,25.39641,574.1,92.36666,6.215446,0,Low
NINE MILE POINT NUCLEAR STATION,LYCOMING,NY,43.521015,-76.410324,0.177061871,23823915.53,25.39641,1446.2,91.88108,15.73991,0,Low
FRENCHTOWN II SOLAR,FRENCHTOWN,NJ,40.51444,-74.97694,0.184374362,23823915.53,24.90813,1390.7,90.39648,15.384449,0.0025,Low
JAMES A FITZPATRICK,LYCOMING,NY,43.52314,-76.39821,0.170484304,23823915.53,23.93157,1208.6,91.14582,13.260071,0.0405,Medium
WC LANDFILL ENERGY LLC,OXFORD,NJ,40.82955,-75.01717,0.184001714,23823915.53,24.81047,881.1,89.72472,9.820037,0.0025,Low
COVANTA WARREN ENERGY,OXFORD,NJ,40.8205,-75.0112,0.185274363,23823915.53,24.32219,1061.2,89.467316,11.861315,0.0025,Low
SHAWNEE (PA),EAST STROUDSBURG,PA,41.061203,-75.05829,0.179866225,23823915.53,25.2011,1102.3,90.49779,12.1804085,0.0025,Low
"QUAKERTOWN SOLAR FARM, LLC",FRANKLIN TWP. / PITTS,NJ,40.52282,-74.94417,0.179052711,23823915.53,25.10344,875.3,91.74461,9.540614,0.0025,Low
YARDS CREEK,BLAIRSTOWN,NJ,41.000942,-75.03167,0.15097855,23823915.53,24.90813,1240.9,89.38985,13.881889,0.0025,Low
CROYDON CT GENERATING STATION,BRISTOL TWP.,PA,40.080055,-74.8932,0.181611806,23823915.53,25.39641,245.4,89.29269,2.7482655,0,Low
HOLDRIDGE ENERGY,UNION DALE,PA,41.560966,-75.185814,0.192314476,23823915.53,24.90813,287.9,89.22551,3.2266557,0.0025,Low
STOURBRIDGE ENERGY,HAWLEY,PA,41.560833,-75.1857,0.176023126,23823915.53,25.10344,869.5,91.53666,9.498926,0.0025,Low
PSEG BURLINGTON GENERATING STATION,BURLINGTON,NJ,40.076405,-74.87946,0.175870314,23823915.53,24.90813,1232,89.24103,13.805309,0.0025,Low
HUNTERDON COGEN FACILITY,CLINTON,NJ,40.62782,-74.93598,0.160310239,23823915.53,24.81047,1288,90.2033,14.278856,0.0025,Low
MCCULLOUGH ROAD SOLAR FARM,WASHINGTON TOWNSHIP,NJ,40.757614,-74.95816,0.167274386,23823915.53,25.10344,1633.8,91.552086,17.84558,0.002,Low
WALLENPAUPACK,HAWLEY,PA,41.46786,-75.13096,0.176453918,23823915.53,25.00579,1197,90.8399,13.17703,0.0025,Low
IKEA WESTHAMPTON 061,WESTAMPTON,NJ,40.01389,-74.85361,0.199590236,23823915.53,24.90813,1262.4,90.356285,13.971358,0.0025,Low
NHA AT MANSFIELD NJ,WASHINGTON,NJ,40.76,-74.935,0.149958998,23823915.53,24.90813,245.4,89.34756,2.7465775,0.0025,Low
GLEN GARDNER,GLEN GARDNER,NJ,40.681995,-74.920395,0.210956484,23823915.53,24.90813,636.3,89.37755,7.1192374,0.0025,Low
LEBANON SOLAR,GLEN GARDNER,NJ,40.67583,-74.91222,0.160879403,23823915.53,25.00579,1101.4,89.852,12.257936,0.0025,Low
HUNTERDON HEALTH SYSTEM SOLAR PROJECT,CLINTON,NJ,40.652,-74.908,0.186707228,23823915.53,25.10344,774.6,91.48799,8.466685,0.0025,Low
EAST AMWELL,EAST AMWELL TWP,NJ,40.443268,-74.87637,0.187467292,23823915.53,25.39641,1282.7,90.25709,14.211626,0,Low
TITUSVILLE SOLAR,TITUSVILLE,NJ,40.29252,-74.85565,0.179566383,23823915.53,25.39641,0,90.31291,0,0,Low
MILL CREEK SOLAR,BURLINGTON,NJ,40.030552,-74.82653,0.130877674,23823915.53,24.90813,1335.4,89.36001,14.944045,0.0025,Low
RARITAN SOLAR - 53 HIGHWAY,RARITAN TOWNSHIP,NJ,40.453865,-74.86303,0.148744553,23823915.53,24.81047,919.7,89.8045,10.241135,0.0025,Low
CONSTELLATION NEW ENERGY INC,MEDFORD,NJ,39.92889,-74.81806,0.141883254,23823915.53,25.00579,799.7,89.322815,8.95292,0.0025,Low
BJ'S WHOLESALE CLUB INC DIST CENTER,BURLINGTON,NJ,40.098457,-74.82593,0.171268523,23823915.53,25.2011,914.9,90.550606,10.103743,0.0025,Low
REEVES STATION RD EAST,MEDFORD,NJ,39.92833,-74.81444,0.153743997,23823915.53,25.39641,879.2,90.27679,9.738937,0,Low
REEVES SOUTH,MEDFORD,NJ,39.926666,-74.813614,0.184951231,23823915.53,25.39641,837.2,90.61364,9.239226,0,Low
RARITAN SOLAR,RINGOES,NJ,40.464222,-74.85788,0.183555871,23823915.53,23.93157,1101.6,91.20681,12.078046,0.0025,Low
MEDFORD WWTP,MEDFORD,NJ,39.922222,-74.80666,0.176684186,23823915.53,25.00579,1373.4,90.79862,15.125781,0.0025,Low
FLEMINGTON SOLAR,FLEMINGTON,NJ,40.48646,-74.85256,0.185989231,23823915.53,23.93157,1033.5,91.11171,11.343218,0.0025,Low
CHRISTMAS TREE SHOPS DC BURLINGTON NJ,FLORENCE TOWNSHIP,NJ,40.10728,-74.81355,0.42181927,23823915.53,25.00579,570.2,90.79137,6.2803326,0.021,Low
"SUMMIT WATER NEXUS MT. HOLLY, LLC SOLAR",LUMBERTON,NJ,39.98728,-74.8018,0.157495841,23823915.53,24.81047,1395.3,89.74976,15.546559,0.0025,Low
BURLINGTON COAT FACTORY SOLAR,FLORENCE,NJ,40.09283,-74.807686,0.157495841,23823915.53,24.81047,1395.3,89.74976,15.546559,0.0025,Low
TULLYTOWN,MORRISVILLE,PA,40.138077,-74.80664,0.453543216,23823915.53,25.39641,1013.8,90.614716,11.188028,0.053225806,High
JUNCTION ROAD,RARITAN TOWNSHIP,NJ,40.5237,-74.8434,0.146748304,23823915.53,24.81047,1157.3,89.71673,12.899489,0.0025,Low
"FLORENCE SOLAR W3-080, LLC",FLORENCE,NJ,40.09561,-74.78761,0.16463837,23823915.53,25.00579,1042.8,89.836655,11.607735,0.0025,Low
HOPEWELL VALLEY HIGH SCHOOL,PENNINGTON,NJ,40.32928,-74.8052,0.453543216,23823915.53,25.39641,1130.7,90.61579,12.477958,0.053225806,High
FALLS,MORRISVILLE,PA,40.17649,-74.78998,0.170623571,23823915.53,24.90813,1679.3,90.40497,18.575306,0.002,Low
BORDENTOWN SOLAR,BURLINGTON,NJ,40.0389,-74.7766,0.134975016,23823915.53,24.90813,1009.8,89.41907,11.292893,0.0025,Low
ETS EWING SOLAR FACILITY,EWING,NJ,40.2818,-74.79364,0.149561301,23823915.53,24.81047,1014.2,89.7664,11.298214,0.0025,Low
MF MESA LANE LLC,MORRISVILLE,PA,40.1483,-74.7772,0.200003982,23823915.53,24.90813,1042.1,89.91937,11.589271,0.0025,Low
BC LANDFILL ENERGY LLC,COLUMBUS,NJ,40.072113,-74.77101,0.170574024,23823915.53,24.81047,1036.5,89.70338,11.554749,0.0025,Low
L&D LANDFILL SOLAR,MT. HOLLY,NJ,39.9814,-74.76568,0.187735409,23823915.53,24.41985,245.4,89.5018,2.7418444,0.0025,Low
CODY ROAD WIND FARM,FENNER,NY,42.971558,-75.75985,0.158185825,23823915.53,24.81047,1365.3,89.80052,15.203698,0.0035,Low
PENNSBURY,MORRISVILLE,PA,40.152992,-74.768906,0.162181124,23823915.53,24.90813,1253.3,90.05375,13.917245,0.0025,Low
WHEELABRATOR FALLS,MORRISVILLE,PA,40.16263,-74.76816,0.184507936,23823915.53,24.81047,855.7,90.20973,9.485673,0.0025,Low
COLLEGE OF NEW JERSEY,EWING,NJ,40.269527,-74.7732,0.193497807,23823915.53,25.39641,908.1,90.64681,10.0180025,0,Low
VEOLIA ENERGY TRENTON L.P.,TRENTON,NJ,40.2167,-74.7667,0.184046149,23823915.53,25.39641,1221.6,90.76876,13.458374,0,Low
FENNER WIND,CAZENOVIA,NY,43.001053,-75.767105,0.173174202,23823915.53,24.32219,850.2,89.461555,9.503524,0.0105,Low
HIGH BRIDGE WIND PROJECT,GUILFORD,NY,42.43383,-75.421616,0.167283863,23823915.53,24.81047,1457.8,89.69307,16.253206,0.0025,Low
HOPEWELL COGENERATION NJ,PENNINGTON,NJ,40.348274,-74.7715,0.181782559,23823915.53,25.39641,570.2,90.72124,6.2851877,0,Low
FAIRLESS HILLS,FAIRLESS HILLS,PA,40.140667,-74.75054,0.158207744,23823915.53,24.90813,245.4,89.94324,2.7283876,0.0025,Low
TRENTON SOLAR FARM,TRENTON,NJ,40.2314,-74.7539,0.199590236,23823915.53,24.90813,570.5,90.3555,6.3139486,0.0025,Low
ALETHEA I,EASTAMPTON,NJ,40.00056,-74.735,0.186880574,23823915.53,24.02922,813.3,91.02396,8.93501,0.0025,Low
FAIRLESS ENERGY CENTER,FAIRLESS HILLS,PA,40.146492,-74.74131,0.182944223,23823915.53,25.2011,923.7,90.54459,10.201603,0.0025,Low
WEST PEMBERTON,PEMBERTON TWP,NJ,40.006012,-74.73051,0.172717378,23823915.53,25.2011,865,90.49297,9.558754,0.0025,Low
WOODOAK DRIVE COMMUNITY SOLAR FARM,TUSTEN,NY,41.594,-75.027,0.192174703,23823915.53,24.90813,1150.7,89.90713,12.798762,0.0025,Low
PSEG MERCER GENERATING STATION,HAMILTON TOWNSHIP,NJ,40.17921,-74.733635,0.168137744,23823915.53,24.02922,570.2,90.95479,6.2690487,0.0025,Low
"MARS WRIGLEY CONFECTIONERY US, LLC",HACKETTSTOWN,NJ,40.8625,-74.825,0.16134043,23823915.53,25.00579,621.6,89.8255,6.920084,0.0025,Low
PSEG HACKETTSTOWN,HACKETTSTOWN,NJ,40.861187,-74.82214,0.187722564,23823915.53,24.5175,618.9,89.64668,6.9037695,0.0025,Low
PARKLAND LANDFILL SOLAR,BORDENTOWN,NJ,40.1275,-74.71083,0.151962146,23823915.53,25.00579,1075.8,89.81523,11.977924,0.0025,Low
PEMBERTON ROAD II,PEMBERTON,NJ,39.979935,-74.70192,0.34724763,23823915.53,25.2011,999.2,90.42795,11.049682,0.021,Low
PEMBERTON ROAD I,PEMBERTON,NJ,39.981766,-74.69737,0.083825164,23823915.53,24.02922,570.2,90.96724,6.2681904,0.0025,Low
THE LAWRENCEVILLE SCHOOL SOLAR FACILITY,LAWRENCEVILLE,NJ,40.299793,-74.719635,0.168769166,23823915.53,24.90813,1589.6,89.43485,17.773832,0.002,Low
BAER ROAD CSG,NEW YORK,NY,41.797,-75.068,0.200346008,23823915.53,25.2011,983.9,89.57342,10.984285,0.0025,Low
BRISTOL MYERS SQUIBB LAWRENCEVILLE,LAWRENCEVILLE,NJ,40.32484,-74.70774,0.168238223,23823915.53,24.81047,1595.5,89.76048,17.775084,0.002,Low
WASTE MANAGEMENT MADISON COUNTY LFGTE,CANASTOTA,NY,43.03286,-75.70524,0.070989333,23823915.53,25.39641,908.3,90.68414,10.016084,0,Low
MADISON COUNTY,CANASTOTA,NY,43.02829,-75.70098,0.193098515,23823915.53,24.90813,1194,89.99513,13.267385,0.01,Low
SILVI GIBRALTAR ROCK,BELLE MEAD,NJ,40.450916,-74.71708,0.165137827,23823915.53,24.90813,0,90.41462,0,0.0025,Low
HOSPITAL RD COMMUNITY SOLAR FARM,DELAWARE,NY,41.774773,-75.03607,0.169468194,23823915.53,24.90813,571.5,89.99207,6.350559,0.0025,Low
MERCER MALL,LAWRENCEVILLE,NJ,40.291145,-74.682465,0.17114982,23823915.53,24.90813,1376.5,90.10785,15.276139,0.0025,Low
IMCLONE SOLAR ELECTRIC FACILITY,BRANCHBURG,NJ,40.560043,-74.71175,0.163290322,23823915.53,25.2011,1619.4,90.548996,17.88424,0.002,Low
YARDVILLE SOLAR FARM,HAMILTON,NJ,40.169037,-74.65786,0.18919453,23823915.53,25.2011,1075.1,89.56121,12.004081,0.0025,Low
SPRINGFIELD SOLAR PROJECT,SPRINGFIELD TWP.,NJ,40.032085,-74.647385,0.142973602,23823915.53,25.39641,746.8,89.25832,8.366727,0,Low
CARRIER CLINIC,BELLE MEAD,NJ,40.470463,-74.6854,0.167352527,23823915.53,25.00579,1034.7,89.84856,11.516045,0.0025,Low
MUNNSVILLE WIND FARM LLC,MADISON,NY,42.90853,-75.56976,0.127685115,23823915.53,24.90813,902,89.23251,10.108423,0.0035,Low
JMB MCGUIRE-DIX-LAKEHURST SOLAR PROJECT,MCGUIRE AFB,NJ,39.992817,-74.63693,0.330079347,23823915.53,24.90813,1293.8,90.00152,14.375313,0.022,Medium
SOLAR STAR NEW JERSEY NJ LLC,SKILLMAN,NJ,40.401363,-74.66962,0.182563409,23823915.53,24.90813,245.4,89.2139,2.7506924,0.0025,Low
PRINCETON UNIVERSITY COGENERATION,PRINCETON,NJ,40.34139,-74.65722,0.174004406,23823915.53,24.90813,1394.2,90.12451,15.469709,0.0025,Low
MERCER COUNTY COMMUNITY COLLEGE,WEST WINDSOR,NJ,40.25549,-74.645065,0.142973602,23823915.53,25.39641,1192.9,89.259415,13.364416,0,Low
"DIX SOLAR, L.L.C",BROWNS MILLS,NJ,39.977432,-74.621864,0.135815009,23823915.53,24.90813,1969.6,89.192245,22.082636,0.002,Low
"TOYS R US- DE, INC. AT MT. OLIVE, NJ",MT. OLIVE,NJ,40.819748,-74.71692,0.176911443,23823915.53,24.81047,1089.3,89.78666,12.1320915,0.0025,Low
HAMILTON SOLAR-CROSSWICKS,HAMILTON,NJ,40.168957,-74.6301,0.14071323,23823915.53,25.2011,244.4,89.59649,2.7277853,0.0025,Low
"350 CLARK SOLAR, NG, LLC",BUDD LAKE,NJ,40.894196,-74.73016,0.18757315,23823915.53,25.39641,960.8,90.66583,10.597157,0,Low
BENJAMIN MOORE & CO. SOLAR,MOUNT OLIVE,NJ,40.82611,-74.71181,0.163715929,23823915.53,24.90813,1125,90.05123,12.492889,0.0025,Low
VILLA ROMA RD #3,DELAWARE,NY,41.75442,-74.96152,0.16305013,23823915.53,25.39641,920.7,90.63693,10.158111,0,Low
SPARTAN,NORTH HANOVER,NJ,40.044857,-74.61016,0.182348311,23823915.53,24.90813,570.5,90.36321,6.31341,0.0025,Low
RB MANUFACTURING LLC BELLE MEAD NJ,HILLSBOROUGH,NJ,40.4836,-74.65012,0.224679738,23823915.53,24.90813,504.7,89.35052,5.64854,0.0025,Low
VILLA ROMA RD #2,DELAWARE,NY,41.756218,-74.96119,0.32926634,23823915.53,24.81047,1417.2,90.17422,15.716244,0.021,Low
VILLA ROMA RD #1,DELAWARE,NY,41.757084,-74.96096,0.165987119,23823915.53,24.90813,1476,90.38187,16.33071,0.0025,Low
VILLA ROMA RD #4,DELAWARE,NY,41.754436,-74.958626,0.175840616,23823915.53,25.2011,1189.6,89.60482,13.276072,0.0025,Low
SKILLMAN,SKILLMAN,NJ,40.571274,-74.65661,0.169187218,23823915.53,24.90813,245.4,90.10399,2.72352,0.0025,Low
"PRINCETON ENERGY CENTER, LLC",PLAINSBORO,NJ,40.339836,-74.62393,0.188302547,23823915.53,24.90813,825.6,90.34161,9.138646,0.0025,Low
LIGHTHOUSE HILL,ALTMAR,NY,43.523426,-75.97093,0.165491059,23823915.53,24.90813,1182.8,90.11537,13.125397,0.0405,Medium
PRINCETON SOLAR PROJECT,PRINCETON,NJ,40.379738,-74.625694,0.186714172,23823915.53,25.39641,245.4,90.67835,2.7062688,0,Low
RARITON OMP,RARITAN,NJ,40.5775,-74.65112,0.160711691,23823915.53,24.90813,1574.9,90.05236,17.488714,0.002,Low
RARITAN ITS,RARITAN,NJ,40.57383,-74.64848,0.140813708,23823915.53,24.41985,294.6,89.48602,3.2921343,0.0025,Low
HANOVER,WRIGHTSTOWN,NJ,40.064175,-74.59298,0.362246573,23823915.53,25.39641,587.2,90.30135,6.5026712,0.050322581,High
PFIZER PEAPACK SOLAR,PEAPACK,NJ,40.714664,-74.66568,0.1995482,23823915.53,24.90813,1194.9,89.87053,13.295794,0.0025,Low
JACOBSTOWN,NORTH HANOVER,NJ,40.06254,-74.58235,0.147732094,23823915.53,24.41985,1822.7,89.49429,20.366661,0.002,Low
BENNETTS BRIDGE,ALTMAR,NY,43.531708,-75.95227,0.200722992,23823915.53,24.5175,1154.8,89.65865,12.879961,0.0405,Medium
AUGUSTA SOLAR FARM,NEWTON,NJ,41.100067,-74.73198,0.138040662,23823915.53,24.90813,0,89.18007,0,0.0025,Low
NORTH RUN,WRIGHTSTOWN,NJ,40.06312,-74.57818,0.238057762,23823915.53,24.41985,612.5,89.48714,6.844559,0.0025,Low
CIP II/AR BRIDGEWATER HOLDINGS - NJCOE,BRIDGEWATER,NJ,40.624058,-74.634476,0.187100574,23823915.53,25.2011,1673.2,90.5948,18.46905,0.002,Low
4 APPLEGATE SOLAR LLC,ROBBINSVILLE,NJ,40.19639,-74.58361,0.193189442,23823915.53,25.2011,282.6,90.45433,3.1242285,0.0025,Low
STERLING POWER PLANT,SHERRILL,NY,43.080284,-75.60077,0.156686842,23823915.53,25.2011,881.4,89.57712,9.839566,0.017,Low
24 APPLEGATE SOLAR LLC,ROBBINSVILLE,NJ,40.205654,-74.57977,0.200003982,23823915.53,24.90813,1120.2,89.92025,12.4577055,0.0025,Low
MUNICH RE PLAZA,PRINCETON,NJ,40.349937,-74.59092,0.422506154,23823915.53,24.90813,1246.1,90.351074,13.791757,0.021,Low
12 APPLEGATE SOLAR LLC,ROBBINSVILLE,NJ,40.20028,-74.57611,0.157093331,23823915.53,25.2011,922.5,90.45851,10.198046,0.0025,Low
DOW JONES SOUTH BRUNSWICK SOLAR,MONMOUTH JUNCTION,NJ,40.36977,-74.58685,0.175870314,23823915.53,24.90813,885.5,89.241196,9.922547,0.0025,Low
DAY FOUR SOLAR LLC,WRIGHTSTOWN,NJ,40.053,-74.556,0.226400241,23823915.53,24.90813,1191.1,90.34797,13.183473,0.0025,Low
MADISON WINDPOWER LLC,MADISON,NY,42.896225,-75.4501,0.152786359,23823915.53,25.2011,1082.3,89.533844,12.088166,0.0035,Low
CATSKILL MTS ENERGY CORPORATION,NEW YORK,NY,42.158928,-75.04879,0.146408513,23823915.53,25.2011,1211.7,89.58661,13.525459,0.0025,Low
MCGRAW HILL SOLAR,EAST WINDSOR TOWNSHIP,NJ,40.27972,-74.55639,0.308772594,23823915.53,24.90813,1342.4,89.9555,14.922935,0.022,Medium
"NEW ROAD SOLAR, LLC",S BRUNSWICK,NJ,40.403236,-74.56779,0.170574024,23823915.53,24.81047,1052.8,89.70238,11.736589,0.0025,Low
FRANKFORD SOLAR,BRANCHVILLE,NJ,41.166565,-74.701645,0.182734311,23823915.53,24.90813,1053.2,89.41504,11.778779,0.0025,Low
SX LANDFILL ENERGY LLC,LAFAYETTE,NJ,41.093765,-74.67906,0.193835914,23823915.53,25.2011,1262.3,89.60217,14.087828,0.0025,Low
SHARON STATION,UPPER FREEHOLD TOWNSH,NJ,40.18029,-74.53734,0.177779704,23823915.53,24.90813,904.9,90.145706,10.038193,0.0025,Low
LAFAYETTE ENERGY PARTNERS LP,BRANCHVILLE,NJ,41.101337,-74.670654,0.19091253,23823915.53,24.81047,1415,90.20568,15.686374,0.0025,Low
CAMDEN CSD SOLAR ARRAY,CAMDEN,NY,43.31356,-75.69615,0.189887837,23823915.53,24.90813,1289.9,89.36759,14.433644,0.0405,Medium
BERNARDS SOLAR,SOMERSET,NJ,40.70033,-74.58192,0.132479325,23823915.53,25.00579,2011.2,89.33039,22.514174,0.002,Low
RIO,GLEN SPEY,NY,41.462162,-74.75837,0.17257005,23823915.53,25.2011,615.2,90.46188,6.8006544,0.0025,Low
PATRIOTS STADIUM,BRIDGEWATER,NJ,40.560555,-74.55139,0.172888651,23823915.53,24.90813,245.4,89.88338,2.7302043,0.0025,Low
FREEZE SOLAR,DAYTON,NJ,40.376293,-74.52785,0.202479184,23823915.53,25.39641,1523.4,90.26984,16.876068,0,Low
SWINGING BRIDGE 2,FORESTBURGH,NY,41.571175,-74.782875,0.167352527,23823915.53,25.00579,688.3,89.846245,7.660866,0.0025,Low
SWINGING BRIDGE 1,FORESTBURGH,NY,41.571625,-74.78266,0.175784379,23823915.53,25.00579,687.7,89.82764,7.655773,0.0025,Low
MONGAUP,FORESTBURGH,NY,41.532673,-74.76445,0.197540104,23823915.53,24.90813,1930.3,89.39867,21.592045,0.002,Low
PLUMSTED 537 LLC,PLUMSTED,NJ,40.11052,-74.49679,0.130411565,23823915.53,25.39641,814.3,89.271576,9.121605,0,Low
ROTOR CLIP,SOMERSET,NJ,40.53905,-74.53237,0.140818328,23823915.53,25.00579,1835.2,89.30574,20.549631,0.002,Low
CRANBURY,CRANBURY,NJ,40.31371,-74.50239,0.179967299,23823915.53,24.90813,1439.1,90.07058,15.97747,0.0025,Low
L'OREAL FRANKLIN,SOMERSET,NJ,40.487907,-74.52136,0.16543211,23823915.53,25.2011,1221.9,89.62004,13.634227,0.0025,Low
UNITED STATIONERS SUPPLY SOLAR ELECTRIC,CRANBURY,NJ,40.32058,-74.501495,0.143205181,23823915.53,25.00579,1000.6,89.32853,11.201349,0.0025,Low
COUNTY COLLEGE OF MORRIS,RANDOLPH,NJ,40.85994,-74.57985,0.143205181,23823915.53,25.00579,1000.6,89.32853,11.201349,0.0025,Low
BEAVER RUN,LAFAYETTE TOWNSHIP,NJ,41.152954,-74.63808,0.1995482,23823915.53,24.90813,1545,89.87013,17.191473,0.002,Low
L'OREAL MONMOUTH,MONMOUTH JUNCTION,NJ,40.401283,-74.504555,0.156686842,23823915.53,25.2011,742.7,89.57564,8.291317,0.0025,Low
MATRIX STULTS ROAD SOLAR FACILITY,SOUTH BRUNSWICK,NJ,40.35794,-74.48992,0.152498215,23823915.53,24.81047,1184.1,89.76277,13.191438,0.0025,Low
USAA BLACK BEAR ENERGY,CRANBURY,NJ,40.313847,-74.48428,0.170284301,23823915.53,24.90813,806.2,90.03453,8.954342,0.0025,Low
HELLER INDUSTRIAL PARKS,DAYTON,NJ,40.37571,-74.48998,0.163615957,23823915.53,24.90813,1354.2,89.20973,15.179958,0.0025,Low
SUNEAST SKYLINE SOLAR PROJECT,WESTMORELAND,NY,43.06307,-75.45194,0.142440051,23823915.53,25.2011,1502.6,89.54679,16.780054,0.0095,Low
MIDDLESEX APPLE ORCHARD SOLAR,NORTH BRUNSWICK,NJ,40.42498,-74.488205,0.167217851,23823915.53,25.39641,931.1,90.276306,10.31389,0,Low
BLACKROCK-MATRIX,SOUTH BRUNSWICK,NJ,40.36244,-74.479774,0.203965843,23823915.53,24.90813,245.4,90.13171,2.7226822,0.0025,Low
DEUTSCHE BANK- PISCATAWAY SOLAR,PISCATAWAY,NJ,40.545753,-74.4964,0.172746047,23823915.53,24.90813,1636.2,90.04289,18.171339,0.002,Low
ENGELHARD SOLAR LLC,MONROE,NJ,40.330997,-74.46202,0.155896008,23823915.53,24.90813,1758.4,89.20367,19.712194,0.002,Low
"KDC SOLAR PR1, LLC",JACKSON,NJ,40.136696,-74.43967,0.170284301,23823915.53,24.90813,1435.2,90.03267,15.94088,0.0025,Low
TANNERY ROAD LANDFILL,ROME,NY,43.239994,-75.54091,0.193459243,23823915.53,24.90813,1170.6,90.14426,12.985852,0.04,Medium
HAMILTON COLLEGE,CLINTON,NY,43.051067,-75.40956,0.157282338,23823915.53,24.90813,570.2,90.09985,6.328534,0.0105,Low
KELLY BRIDGE ROAD COMMUNITY SOLAR FARM,LIBERTY,NY,41.77542,-74.77647,0.158185825,23823915.53,24.81047,1340.1,89.80229,14.922782,0.0025,Low
WILLIAMS-SONOMA SOLAR FACILITY,JAMESBURG,NJ,40.387436,-74.455124,0.186579883,23823915.53,25.39641,1435.4,90.255844,15.90368,0,Low
NORTHPARK SOLAR,MILLSTONE,NJ,40.25665,-74.44132,0.140460968,23823915.53,24.5175,1323.4,89.64212,14.763149,0.0025,Low
G&S WANTAGE SOLAR LLC,WANTAGE,NJ,41.188393,-74.59051,0.163461104,23823915.53,25.00579,658.3,89.3248,7.369734,0.0025,Low
L'OREAL PISCATAWAY,NEW BRUNSWICK,NJ,40.555664,-74.46751,0.17253004,23823915.53,24.90813,1215.4,90.059616,13.495505,0.0025,Low
ONYX - LAMPHEAR ROAD,ROME,NY,43.18291,-75.474495,0.151962414,23823915.53,25.2011,1790.1,89.6133,19.975832,0.0205,Low
GREENVILLE CSG,PORT JERVIS,NY,41.356,-74.622,0.192174703,23823915.53,24.90813,1072.6,89.90784,11.929995,0.0025,Low
BRISTOL MYERS SQUIBB NEW BRUNSWICK,NEW BRUNSWICK,NJ,40.476105,-74.444405,0.164455786,23823915.53,24.90813,435.3,89.41174,4.8684883,0.0025,Low
POOL BROOK RD COMMUNITY SOLAR FARM,LAURENS,NY,42.542175,-75.08338,0.171936095,23823915.53,24.90813,1197,90.06801,13.289958,0.0025,Low
LIVINGSTON SOLAR CANOPIES,PISCATAWAY,NJ,40.5275,-74.43833,0.15571709,23823915.53,25.2011,1041,89.5359,11.626621,0.0025,Low
WILLIAM G MENNEN SPORTS SOLAR,MORRISTOWN,NJ,40.81485,-74.47586,0.18560186,23823915.53,24.81047,1610.8,90.169365,17.86416,0.002,Low
TIOGA SOLAR MORRIS COUNTY 1 LLC,MORRISTOWN,NJ,40.815277,-74.47583,0.127663702,23823915.53,25.39641,948.6,89.285736,10.624317,0,Low
LIVINGSTON SOLAR FARM,PISCATAWAY,NJ,40.52361,-74.42958,0.172888651,23823915.53,24.90813,1000.3,89.88321,11.128886,0.0025,Low
PLAINFIELD ONE SOLAR LLC,PLAINFIELD,NJ,40.60617,-74.43811,0.157234401,23823915.53,24.5175,922,89.66725,10.282461,0.0025,Low
NORTH JERSEY MEDIA GROUP SOLAR FACILITY,ROCKAWAY TOWNSHIP,NJ,40.926056,-74.4928,0.156181604,23823915.53,24.90813,1238.5,89.91316,13.774402,0.0025,Low
"GEMINI TECHNOLOGIES SERVICES, INC. SOLAR",PARSIPPANY,NJ,40.8488,-74.46858,0.155896008,23823915.53,24.90813,882.2,89.20417,9.889672,0.0025,Low
TIME WARNER CABLE ENTERPRISES - MARTINO,ROME,NY,43.18369,-75.43048,0.155896008,23823915.53,24.90813,882.2,89.20417,9.889672,0.021,Low
MILHURST SOLAR,MANALAPAN,NJ,40.254974,-74.38084,0.157800034,23823915.53,25.2011,547.3,89.57121,6.110222,0.0025,Low
JORDACHE ENTERPRISES SOLAR,SOUTH PLAINFIELD,NJ,40.555763,-74.40979,0.158185825,23823915.53,24.81047,1328.8,89.802795,14.796867,0.0025,Low
ONEIDA - WEST,WHITESTOWN,NY,43.1684,-75.4043,0.170251489,23823915.53,24.90813,577,89.925766,6.4164033,0.019,Low
COLUMBIA UNIVERSITY - MINISINK,MINISINK,NY,41.294163,-74.55417,0.195619568,23823915.53,24.90813,245.4,89.24254,2.7498097,0.0025,Low
DANC LFGTE FACILITY,RODMAN,NY,43.824295,-75.91125,0.145948112,23823915.53,24.32219,1397.8,89.45963,15.624925,0.039,Medium
CINNAMON BAY EDGEBORO LANDFILL,EAST BRUNSWICK,NJ,40.46528,-74.39389,0.207777187,23823915.53,25.00579,878.9,89.33251,9.838524,0.0025,Low
SILVER LAKE SOLAR FARM,EDISON,NJ,40.495014,-74.396965,0.189887837,23823915.53,24.90813,950.9,89.3625,10.640929,0.0025,Low
SULLIVAN COUNTY - ADULT CARE SOLAR,LIBERTY,NY,41.7981,-74.70804,0.126664117,23823915.53,24.90813,925.4,89.223946,10.371655,0.0025,Low
PSEG EDISON GENERATING STATION,EDISON,NJ,40.491142,-74.395096,0.155959815,23823915.53,25.00579,1302.5,89.86278,14.494322,0.0025,Low
WESTTOWN CSG,WESTTOWN,NY,41.345,-74.561,0.162778378,23823915.53,24.90813,1487,89.911354,16.538511,0.002,Low
ONEIDA - SOUTH,WHITESTOWN,NY,43.166645,-75.39209,0.151962146,23823915.53,25.00579,1411.4,89.818375,15.713934,0.02,Low
HELLER 400M,EDISON TOWNSHIP,NJ,40.4987,-74.3878,0.175981283,23823915.53,25.00579,590.2,89.82976,6.5702057,0.0025,Low
ILR LANDFILL,EDISON,NJ,40.47054,-74.38361,0.145948112,23823915.53,24.32219,0,89.45666,0,0.0025,Low
145 TALMADGE SOLAR,EDISON,NJ,40.53579,-74.39127,0.183528885,23823915.53,24.81047,934.1,89.77399,10.405019,0.0025,Low
DG FLORHAM PARK SOLAR LLC,FLORHAM PARK,NJ,40.777782,-74.42724,0.161665499,23823915.53,24.90813,589.2,89.91555,6.5528154,0.0025,Low
HALL'S WAREHOUSE SOLAR PROJECT,SOUTH PLAINFIELD,NJ,40.57371,-74.39441,0.185529813,23823915.53,24.90813,1103.3,90.082924,12.247604,0.0025,Low
CONNELL EAST LLC,BERKELEY HEIGHTS,NJ,40.66744,-74.40804,0.186556891,23823915.53,25.2011,1348.1,89.51665,15.059769,0.0025,Low
ONEIDA COUNTY- DPW,ORISKANY,NY,43.149593,-75.370445,0.142440051,23823915.53,25.2011,1269.4,89.546616,14.175857,0.019,Low
GLOPAK SOLAR PV POWER PLANT,SOUTH PLAINFIELD,NJ,40.57538,-74.39281,0.181611806,23823915.53,25.39641,1491,89.29228,16.697971,0,Low
MURRAY HILL SOLAR,NEW PROVIDENCE,NJ,40.68427,-74.404366,0.166839078,23823915.53,24.90813,1079.8,89.93834,12.006003,0.0025,Low
MANALAPAN VILLAGE SOLAR,MANALAPAN,NJ,40.25667,-74.34972,0.182259873,23823915.53,24.5175,777.2,89.68517,8.665869,0.0025,Low
GOODYEAR LAKE PLANT,ONEONTA,NY,42.50247,-74.98356,0.177899599,23823915.53,24.90813,1567.4,90.07988,17.400112,0.002,Low
DEXTER PLANT,DEXTER,NY,44.003986,-76.041405,0.196334824,23823915.53,24.81047,1298.4,89.696594,14.475467,0.039,Medium
MIDDLESEX ENERGY CENTER LLC,SAYREVILLE,NJ,40.446,-74.356,0.130768448,23823915.53,24.90813,901.9,89.18491,10.112698,0.0025,Low
TISSINGTON SOLAR,VERNON TOWNSHIP,NJ,41.20028,-74.49194,0.160879403,23823915.53,25.00579,1112.2,89.853745,12.3778925,0.0025,Low
SAYREVILLE,SAYREVILLE,NJ,40.47836,-74.35439,0.165520892,23823915.53,25.39641,2120.3,89.29768,23.744177,0,Low
MINISINK COMMUNITY SOLAR 2 LLC,MINISINK,NY,41.31935,-74.51528,0.175244793,23823915.53,24.90813,947.6,89.895134,10.541171,0.0025,Low
RED OAK POWER LLC,SAYREVILLE,NJ,40.448826,-74.348526,0.194562539,23823915.53,25.00579,770.7,89.857925,8.576873,0.0025,Low
MINISINK SOLAR 1 LLC,MINISINK,NY,41.321224,-74.514084,0.180088922,23823915.53,24.81047,1163,89.69777,12.965763,0.0025,Low
SUMMIT ASSOCIATES,EDISON,NJ,40.499462,-74.35333,0.158185825,23823915.53,24.81047,858.9,89.80214,9.564361,0.0025,Low
SAYREVILLE COGENERATION FACILITY,SAYREVILLE,NJ,40.439,-74.3444,0.170251489,23823915.53,24.90813,1078.3,89.925125,11.991087,0.0025,Low
"GATEWAY ENERGY CENTER, LLC",SAYREVILLE,NJ,40.441944,-74.34361,0.130071759,23823915.53,24.90813,1052.8,89.2419,11.79715,0.0025,Low
CENTRASTATE MEDICAL CENTER PV FACILITY,FREEHOLD,NJ,40.23526,-74.320885,0.126664117,23823915.53,24.90813,1634.6,89.223305,18.320326,0.002,Low
PPL RENEWABLE ENERGY MERCK SOLAR,SUMMIT,NJ,40.72739,-74.3783,0.183544666,23823915.53,25.2011,1207.7,89.54901,13.486469,0.0025,Low
JEFFERSON-LEWIS BOCES SOLAR,WATERTOWN,NY,43.97096,-75.9698,0.140818328,23823915.53,25.00579,1083.2,89.30607,12.129075,0.0395,Medium
KDC SOLAR CSCP LLC,FREEHOLD,NJ,40.237804,-74.31442,0.156981438,23823915.53,24.90813,1266.3,89.19749,14.1965885,0.0025,Low
180 RARITAN SOLAR,EDISON,NJ,40.51524,-74.33752,0.170322493,23823915.53,25.00579,1102.4,89.84054,12.27063,0.0025,Low
BURRSTONE ENERGY CENTER,NEW HARTFORD,NY,43.09534,-75.27836,0.134975016,23823915.53,24.90813,245.4,89.41884,2.744388,0.017,Low
PARLIN SOLAR LLC,SAYREVILLE,NJ,40.45667,-74.32889,0.150174648,23823915.53,24.81047,499.3,89.784744,5.5610785,0.0025,Low
PARLIN POWER PLANT,PARLIN,NJ,40.46072,-74.32716,0.156686842,23823915.53,25.2011,1063.5,89.57598,11.872602,0.0025,Low
WAKEFERN FOOD CORP,KEASBEY,NJ,40.50983,-74.32822,0.16543211,23823915.53,25.2011,1308.9,89.617386,14.605424,0.0025,Low
SABERT SOLAR,SAYREVILLE,NJ,40.475475,-74.32093,0.174185529,23823915.53,25.2011,1347.2,89.513016,15.050325,0.0025,Low
OVERLOOK MEDICAL CENTER,SUMMIT,NJ,40.711685,-74.35423,0.174185529,23823915.53,25.2011,1347.2,89.513016,15.050325,0.0025,Low
OLD BRIDGE CLEAN ENERGY CENTER,OLD BRIDGE,NJ,40.441208,-74.31581,0.138444379,23823915.53,24.90813,747.4,89.22869,8.376229,0.0025,Low
FEDEX WOODBRIDGE,KEASBEY,NJ,40.50636,-74.32352,0.142973602,23823915.53,25.39641,968,89.25868,10.844884,0,Low
NEVERSINK,GRAHMSVILLE,NY,41.827923,-74.638725,0.155364096,23823915.53,24.90813,917.9,89.904686,10.209702,0.0025,Low
WOODBRIDGE ENERGY CENTER,KEASBEY,NJ,40.515,-74.31889,0.144919276,23823915.53,24.81047,244.4,89.71873,2.7240689,0.0025,Low
GLEN PARK HYDROELECTRIC PROJECT,WATERTOWN,NY,44.000652,-75.96128,0.167483822,23823915.53,24.81047,1467,89.700165,16.354485,0.0395,Medium
MIDDLESEX GENERATING FACILITY,SAYREVILLE,NJ,40.489986,-74.30694,0.187735409,23823915.53,24.41985,1447.7,89.502785,16.174915,0.0025,Low
JACKSON BOARD OF EDUCATION-LIBERTY HS,JACKSON,NJ,40.09047,-74.26532,0.128100827,23823915.53,25.00579,245.4,89.31983,2.7474303,0.0025,Low
EAST ORANGE SOLAR,MILLBURN TOWNSHIP,NJ,40.758003,-74.33985,0.175809622,23823915.53,24.90813,1382.4,89.428406,15.458175,0.0025,Low
ST. LAWERENCE UNIVERSITY - SUTTON,WATERTOWN,NY,43.933125,-75.87204,0.147789061,23823915.53,24.81047,1414.9,89.76855,15.761646,0.039,Medium
BEEBEE ISLAND HYDRO PLANT,WATERTOWN,NY,43.976948,-75.90696,0.147732094,23823915.53,24.41985,1242.8,89.49262,13.887178,0.0395,Medium
OCEAN COUNTY LANDFILL,MANCHESTER,NJ,40.025005,-74.25033,0.151864707,23823915.53,24.81047,1795.2,89.74275,20.003843,0.002,Low
SEWALLS,WATERTOWN,NY,43.97743,-75.895134,0.140460968,23823915.53,24.5175,1516.6,89.64258,16.918299,0.039,Medium
WERNER,SOUTH AMBOY,NJ,40.49124,-74.28099,0.145948112,23823915.53,24.32219,245.4,89.45961,2.7431374,0.0025,Low
NEO FREEHOLD GEN LLC,FREEHOLD,NJ,40.245033,-74.25474,0.298254102,23823915.53,24.81047,1143.6,89.77694,12.738237,0.022,Medium
BBB CORPORATE HEADQUARTERS,UNION,NJ,40.697777,-74.305016,0.163461104,23823915.53,25.00579,1082.2,89.325264,12.115273,0.0025,Low
DIAMOND ISLAND PLANT,WATERTOWN,NY,43.97863,-75.8861,0.178691849,23823915.53,24.90813,245.4,89.38523,2.74542,0.0375,Medium
SHORE POINT SOLAR,FREEHOLD,NJ,40.24521,-74.2435,0.183528885,23823915.53,24.81047,1367.3,89.77394,15.230477,0.0025,Low
US FOODS SOLAR,PERTH AMBOY,NJ,40.53444,-74.27358,0.238057762,23823915.53,24.41985,377.6,89.4866,4.219626,0.0025,Low
WATERTOWN,WATERTOWN,NY,43.978127,-75.8763,0.127663702,23823915.53,25.39641,1151.4,89.280876,12.8963785,0,Low
MATRIX BUILDINGS A&B (PERTH AMBOY) SOLAR,PERTH AMBOY,NJ,40.533512,-74.27006,0.229736984,23823915.53,24.90813,978.8,89.40083,10.948444,0.0025,Low
SACKET LAKE RD #1 COMMUNITY SOLAR FARM,THOMPSON,NY,41.38251,-74.43526,0.314986914,23823915.53,25.00579,245.4,89.86391,2.730796,0.021,Low
SACKET LAKE RD #2 COMMUNITY SOLAR FARM,THOMPSON,NY,41.382576,-74.4352,0.314986914,23823915.53,25.00579,245.4,89.86391,2.730796,0.021,Low
CALDWELL WASTEWATER TREATMENT PLANT,WEST CALDWELL,NJ,40.83966,-74.31211,0.163507029,23823915.53,24.90813,245.4,89.345055,2.7466545,0.0025,Low
FORKED RIVER,FORKED RIVER,NJ,39.8154,-74.2098,0.160101831,23823915.53,24.81047,1007.6,89.73377,11.228771,0.0025,Low
CPV VALLEY ENERGY CENTER,WAWAYANDA,NY,41.41204,-74.43863,0.151962146,23823915.53,25.00579,1548.3,89.81952,17.237902,0.002,Low
"ISH SOLAR CENTRAL, LLC",BAYVILLE,NJ,39.88883,-74.20961,0.158185825,23823915.53,24.81047,1641.9,89.800934,18.283773,0.002,Low
OYSTER CREEK,FORKED RIVER,NJ,39.8143,-74.2062,0.164775982,23823915.53,24.81047,1279.9,89.74515,14.261496,0.0025,Low
ROCK SOLID,HOWELL,NJ,40.23005,-74.22545,0.138040662,23823915.53,24.90813,947,89.18068,10.618892,0.0025,Low
UNION COUNTY RESOURCE RECOVERY,RAHWAY,NJ,40.60126,-74.26637,0.140460968,23823915.53,24.5175,1480.1,89.64079,16.511456,0.002,Low
PRUDENTIAL 80 LIVINGSTON ROSELAND SOLAR,ROSELAND,NJ,40.81202,-74.29754,0.135815009,23823915.53,24.90813,898.6,89.19211,10.0748825,0.0025,Low
OLD BRIDGE SOLAR FARM,OLD BRIDGE,NJ,40.44437,-74.24338,0.127663702,23823915.53,25.39641,1174.3,89.282074,13.152697,0,Low
PRUDENTIAL 55 LIVINGSTON ROSELAND SOLAR,ROSELAND,NJ,40.814587,-74.2971,0.251311779,23823915.53,24.81047,1055.4,89.737976,11.760907,0.0025,Low
MERCK RAHWAY POWER PLANT,RAHWAY,NJ,40.61562,-74.26529,0.182487205,23823915.53,24.5175,407.2,89.65217,4.5419984,0.0025,Low
KENILWORTH ENERGY FACILITY,KENILWORTH,NJ,40.6781,-74.2744,0.166300535,23823915.53,25.2011,1261.2,89.58499,14.078251,0.0025,Low
CCG MARKETING,WEST CALDWELL,NJ,40.86087,-74.30438,0.148021027,23823915.53,24.90813,1088.9,89.34207,12.187986,0.0025,Low
"ROARING BROOK, LLC",TOWN OF MARTINSBURG,NY,43.7096,-75.61622,0.147789061,23823915.53,24.81047,1764.8,89.76792,19.659584,0.042,Medium
IGS SOLAR I - EWR6,AVENEL,NJ,40.583,-74.257,0.130768448,23823915.53,24.90813,901.9,89.18491,10.112698,0.0025,Low
IGS SOLAR I - EWR5,AVENEL,NJ,40.582,-74.255,0.160493523,23823915.53,24.81047,884.3,89.69356,9.859125,0.0025,Low
ONEIDA HERKIMER,BOONVILLE,NY,43.457516,-75.414856,0.1852355,23823915.53,25.2011,1446.3,89.52203,16.1558,0.0405,Medium
PSEG SEWAREN GENERATING STATION,SEWAREN,NJ,40.55623,-74.24699,0.183528885,23823915.53,24.81047,832.7,89.77216,9.275704,0.0025,Low
BED BATH & BEYOND DC PORT READING NJ,PORT READING,NJ,40.56686,-74.24206,0.268283963,23823915.53,25.39641,901.7,89.30188,10.097212,0,Low
SHOEMAKER,MIDDLETOWN,NY,41.427605,-74.41855,0.298254102,23823915.53,24.81047,760.5,89.77636,8.471049,0.021,Low
KINDER MORGAN FORDHAM,STATEN ISLAND,NY,40.543243,-74.23733,0.238057762,23823915.53,24.41985,886.9,89.489044,9.91071,0.0025,Low
BASSETT MEDICAL CENTER,COOPERSTOWN,NY,42.69467,-74.92347,0.221183226,23823915.53,25.00579,1248.8,89.31329,13.982242,0.0025,Low
LAKEWOOD SEVEN SOLAR LLC,LAKEWOOD,NJ,40.057487,-74.185165,0.20636031,23823915.53,25.39641,245.4,89.287506,2.748425,0,Low
BAYVILLE CENTRAL FACILITY,BAYVILLE,NJ,39.90942,-74.17804,0.181786776,23823915.53,24.41985,1058.1,89.47466,11.825694,0.0025,Low
LAKEWOOD CHEDDAR SCHOOL,LAKEWOOD,NJ,40.0709,-74.1808,0.146748304,23823915.53,24.81047,1089.5,89.71759,12.143661,0.0025,Low
AMAZON,CARTERET,NJ,40.564064,-74.22093,0.127663702,23823915.53,25.39641,2186.9,89.28451,24.49361,0,Low
IOS - ERW9,CARTERET,NJ,40.595,-74.225,0.159825355,23823915.53,24.90813,1158.2,89.39309,12.956259,0.0025,Low
MERCK SHARP & DOHME COGEN FACILITY,UNION,NJ,40.684982,-74.235756,0.143975824,23823915.53,24.32219,407,89.45307,4.549872,0.0025,Low
HOWELL SOLAR,HOWELL,NJ,40.13573,-74.17489,0.148436189,23823915.53,25.2011,1346,89.5988,15.022523,0.0025,Low
NAEA LAKEWOOD LLC,LAKEWOOD,NJ,40.0613,-74.1686,0.146833181,23823915.53,24.32219,1903.2,89.46447,21.273249,0.002,Low
BLACK RIVER,BLACK RIVER,NY,44.00001,-75.81324,0.149970889,23823915.53,24.90813,1699.8,89.41587,19.010048,0.0385,Medium
NAEA OCEAN PEAKING POWER LLC,LAKEWOOD,NJ,40.063427,-74.1671,0.20636031,23823915.53,25.39641,1704.1,89.28872,19.085278,0,Low
CORNERSTONE POWER HOLMDEL LLC,HOLMDEL,NJ,40.35222,-74.18778,0.184001714,23823915.53,24.81047,245.4,89.72601,2.734993,0.0025,Low
BAYWAY REFINERY,LINDEN,NJ,40.63755,-74.22122,0.159232318,23823915.53,24.5175,0,89.6888,0,0.0025,Low
NES RUTGERS SOLAR,LAKEWOOD,NJ,40.07088,-74.161156,0.139220849,23823915.53,24.90813,1365.7,89.23293,15.304887,0.0025,Low
LINDEN SOLAR FARM,LINDEN,NJ,40.620014,-74.21494,0.134337306,23823915.53,25.39641,865.5,89.26293,9.696074,0,Low
AL TURI,GOSHEN,NY,41.405552,-74.37794,0.134337306,23823915.53,25.39641,865.5,89.26293,9.696074,0,Low
LINDEN COGEN PLANT,LINDEN,NJ,40.63254,-74.215355,0.181730166,23823915.53,24.81047,0,89.74881,0,0.0025,Low
WEST DELAWARE TUNNEL PLANT,GRAHAMSVILLE,NY,41.85361,-74.51402,0.147899151,23823915.53,24.5175,1555.2,89.67444,17.342733,0.002,Low
PSEG LINDEN GENERATING STATION,LINDEN,NJ,40.62111,-74.20699,0.178126797,23823915.53,25.00579,1992.6,89.327126,22.306774,0.002,Low
GRAHAMSVILLE,GRAHAMSVILLE,NY,41.85953,-74.51036,0.140818328,23823915.53,25.00579,1280.2,89.30852,14.334579,0.0025,Low
ARTHUR KILL GENERATING STATION,STATEN ISLAND,NY,40.591915,-74.199844,0.173778653,23823915.53,24.90813,1640,89.19991,18.38567,0.002,Low
KAMARGO,BLACK RIVER,NY,44.01171,-75.79652,0.130418554,23823915.53,24.90813,650.1,89.39851,7.271933,0.039,Medium
BRICKYARD SOLAR,FARMINGDALE,NJ,40.193638,-74.155396,0.138040662,23823915.53,24.90813,894.8,89.1813,10.033494,0.0025,Low
HARMON DC TOTOWA NJ,TOTOWA,NJ,40.90392,-74.24771,0.181487709,23823915.53,24.90813,1039.3,89.37993,11.627891,0.0025,Low
COMMUNITY FOODBANK OF NJ,HILLSIDE,NJ,40.697258,-74.212234,0.181487709,23823915.53,24.90813,1039.3,89.37993,11.627891,0.0025,Low
COPENHAGEN WIND FARM,COPENHAGEN,NY,43.913055,-75.69861,0.157234401,23823915.53,24.5175,1123.4,89.66426,12.52896,0.039,Medium
ORANGE COUNTY SOLAR FARM (NY),GOSHEN,NY,41.407307,-74.35569,0.148638338,23823915.53,25.29875,1253.1,89.627075,13.981267,0.0025,Low
PASSAIC VALLEY WATER COMMISSION,TOTOWA,NJ,40.88334,-74.22999,0.201825887,23823915.53,24.32219,1153.1,89.4369,12.892889,0.0025,Low
IFF HAZLET GROUND,HAZLET,NJ,40.437237,-74.160385,0.141883254,23823915.53,25.00579,1020.7,89.32116,11.427303,0.0025,Low
FRENCH'S LANDFILL PV,BRICK,NJ,40.109226,-74.13002,0.139235467,23823915.53,25.39641,1698.7,89.30256,19.02185,0,Low
ANHEUSER-BUSCH NEWARK BREWERY,NEWARK,NJ,40.69483,-74.19112,0.166804627,23823915.53,25.39641,842.9,89.25398,9.443836,0,Low
MAPLE RIDGE WIND FARM,LOWVILLE,NY,43.788296,-75.57339,0.127663702,23823915.53,25.39641,1045.8,89.28397,11.713188,0,Low
SUNEAST WATKINS ROAD SOLAR PROJECT,SCHUYLER,NY,43.06127,-75.05585,0.159825355,23823915.53,24.90813,245.4,89.39251,2.7451966,0.0105,Low
IFF UNION BEACH PROJECT,UNION BEACH,NJ,40.446575,-74.154625,0.183544666,23823915.53,25.2011,715.4,89.54972,7.988858,0.0025,Low
COPENHAGEN PLANT,COPENHAGEN,NY,43.89975,-75.66027,0.146833181,23823915.53,24.32219,1157.1,89.46394,12.933702,0.0395,Medium
RUTGERS BIOMEDICAL AND HEALTH COGEN,NEWARK,NJ,40.73928,-74.18763,0.13846007,23823915.53,25.2011,1006.1,89.55393,11.2345705,0.0025,Low
REENERGY BLACK RIVER,FORT DRUM,NY,44.036552,-75.77195,0.185274363,23823915.53,24.32219,1624.9,89.46813,18.161774,0.0385,Medium
JERSEY GARDENS PHASE 1,ELIZABETH,NJ,40.66019,-74.171646,0.16271174,23823915.53,25.2011,1136.6,89.61392,12.683297,0.0025,Low
JERSEY GARDENS PHASE 2,ELIZABETH,NJ,40.660107,-74.17152,0.16271174,23823915.53,25.2011,1136.6,89.61392,12.683297,0.0025,Low
MONMOUTH LANDFILL GAS TO ENERGY,TINTON FALLS,NJ,40.24683,-74.11742,0.219594583,23823915.53,25.39641,911.5,89.26661,10.210984,0,Low
MONTCLAIR COGEN FACILITY,UPPER MONTCLAIR,NJ,40.864326,-74.19757,0.143975824,23823915.53,24.32219,1312.8,89.45375,14.675739,0.0025,Low
TRENTON FALLS,BARNEVELD,NY,43.275715,-75.15614,0.180481523,23823915.53,24.32219,825.9,89.46938,9.231091,0.041,Medium
CHESTER CSG,CHESTER,NY,41.339,-74.288,0.178691849,23823915.53,24.90813,859.1,89.38361,9.611381,0.0025,Low
KINGS FALLS HYDROELECTRIC,COPENHAGEN,NY,43.91733,-75.63393,0.147732094,23823915.53,24.41985,887.4,89.492195,9.915948,0.0395,Medium
CMR SOLAR LLC,PINE BUSH,NY,41.561848,-74.34591,0.157800034,23823915.53,25.2011,1023.2,89.570786,11.4233675,0.0025,Low
WILLIAM PATERSON UNIVERSITY,WAYNE,NJ,40.952324,-74.19557,0.165520892,23823915.53,25.39641,813.3,89.297844,9.107723,0,Low
SEASIDE HEIGHTS POWER PLANT,SEASIDE HEIGHTS,NJ,39.944157,-74.07858,0.185240939,23823915.53,25.39641,245.4,89.279236,2.7486794,0,Low
ASBURY PARK PRESS,NEPTUNE,NJ,40.223244,-74.08956,0.181487709,23823915.53,24.90813,912.2,89.38064,10.20579,0.0025,Low
GREAT FALLS HYDRO PROJECT,PATERSON,NJ,40.91532,-74.18099,0.136060566,23823915.53,24.41985,1077,89.5078,12.032471,0.0025,Low
PROSPECT,PROSPECT,NY,43.29187,-75.147644,0.145948112,23823915.53,24.32219,852.7,89.45923,9.531716,0.0405,Medium
SEABROOK VILLAGE,TINTON FALLS,NJ,40.233093,-74.089,0.125967503,23823915.53,24.90813,1303.5,89.193474,14.614298,0.0025,Low
HERKIMER,HERKIMER,NY,43.03353,-74.983536,0.126664117,23823915.53,24.90813,648.8,89.223465,7.27163,0.01,Low
TINTON FALLS SOLAR FARM,TINTON FALLS,NJ,40.26389,-74.08417,0.189887837,23823915.53,24.90813,871.2,89.36621,9.7486515,0.0025,Low
PORT RICHMOND WWT SOLAR,STATEN ISLAND,NY,40.638058,-74.126114,0.20636031,23823915.53,25.39641,814,89.287674,9.116599,0,Low
PORT LEYDEN HYDROELECTRIC PROJECT,PORT LEYDEN,NY,43.583725,-75.339554,0.187267467,23823915.53,25.39641,973.3,89.29908,10.899329,0,Low
HOFFMANN LAROCHE,NUTLEY,NJ,40.83593,-74.15503,0.187267467,23823915.53,25.39641,973.3,89.29908,10.899329,0,Low
BLACK RIVER HYDRO ASSOCIATES,PORT LAYDEN,NY,43.59125,-75.34421,0.143205181,23823915.53,25.00579,245.4,89.32904,2.747147,0.0385,Medium
LYONS FALLS HYDROELECTRIC,LYONS FALLS,NY,43.618217,-75.35838,0.151429102,23823915.53,24.90813,1179.4,89.183304,13.224448,0.0405,Medium
NEWARK BAY COGENERATION PARTNERSHIP LP,NEWARK,NJ,40.71993,-74.12988,0.177283421,23823915.53,24.41985,1002.6,89.47902,11.204862,0.0025,Low
NEWARK ENERGY CENTER,NEWARK,NJ,40.70737,-74.12629,0.173174202,23823915.53,24.32219,823.9,89.46046,9.209656,0.0025,Low
